[
  {
    "pop2023": 8992908,
    "pop2022": 8930002,
    "pop2020": 8804190,
    "pop2010": 8175133,
    "growth": 0.00704,
    "usps": "NY",
    "geoid": 3651000,
    "ansicode": 2395220,
    "name": "New York City",
    "lsad": "2",
    "funcstat": 0,
    "aland": 777983000,
    "awater": 434642000,
    "aland_sqmi": 300.381,
    "awater_sqmi": 167.816,
    "intptlat": 40.6635,
    "intptlong": -73.9387,
    "slug": "new-york-city-ny",
    "metroId": 35620,
    "rank": 1,
    "density": 29938
  },
  {
    "pop2023": 3930586,
    "pop2022": 3919973,
    "pop2020": 3898747,
    "pop2010": 3792621,
    "growth": 0.00271,
    "usps": "CA",
    "geoid": 644000,
    "ansicode": 2410877,
    "name": "Los Angeles",
    "lsad": "2",
    "funcstat": 0,
    "aland": 1214590000,
    "awater": 87468500,
    "aland_sqmi": 468.956,
    "awater_sqmi": 33.772,
    "intptlat": 34.0194,
    "intptlong": -118.411,
    "slug": "los-angeles-ca",
    "metroId": 31080,
    "rank": 2,
    "density": 8382
  },
  {
    "pop2023": 2761625,
    "pop2022": 2756546,
    "pop2020": 2746388,
    "pop2010": 2695598,
    "growth": 0.00184,
    "usps": "IL",
    "geoid": 1714000,
    "ansicode": 428803,
    "name": "Chicago",
    "lsad": "2",
    "funcstat": 0,
    "aland": 588882000,
    "awater": 17621500,
    "aland_sqmi": 227.369,
    "awater_sqmi": 6.804,
    "intptlat": 41.8376,
    "intptlong": -87.6818,
    "slug": "chicago-il",
    "metroId": 16980,
    "rank": 3,
    "density": 12146
  },
  {
    "pop2023": 2366119,
    "pop2022": 2345606,
    "pop2020": 2304580,
    "pop2010": 2099451,
    "growth": 0.00875,
    "usps": "TX",
    "geoid": 4835000,
    "ansicode": 2410796,
    "name": "Houston",
    "lsad": "2",
    "funcstat": 0,
    "aland": 1658090000,
    "awater": 81248100,
    "aland_sqmi": 640.194,
    "awater_sqmi": 31.37,
    "intptlat": 29.7857,
    "intptlong": -95.3888,
    "slug": "houston-tx",
    "metroId": 26420,
    "rank": 4,
    "density": 3696
  },
  {
    "pop2023": 1656892,
    "pop2022": 1640641,
    "pop2020": 1608139,
    "pop2010": 1445632,
    "growth": 0.00991,
    "usps": "AZ",
    "geoid": 455000,
    "ansicode": 2411414,
    "name": "Phoenix",
    "lsad": "2",
    "funcstat": 0,
    "aland": 1340770000,
    "awater": 3236740,
    "aland_sqmi": 517.673,
    "awater_sqmi": 1.25,
    "intptlat": 33.5722,
    "intptlong": -112.09,
    "slug": "phoenix-az",
    "metroId": 38060,
    "rank": 5,
    "density": 3201
  },
  {
    "pop2023": 1627134,
    "pop2022": 1619355,
    "pop2020": 1603797,
    "pop2010": 1526006,
    "growth": 0.0048,
    "usps": "PA",
    "geoid": 4260000,
    "ansicode": 1215531,
    "name": "Philadelphia",
    "lsad": "2",
    "funcstat": 0,
    "aland": 347782000,
    "awater": 21806100,
    "aland_sqmi": 134.279,
    "awater_sqmi": 8.419,
    "intptlat": 40.0094,
    "intptlong": -75.1333,
    "slug": "philadelphia-pa",
    "metroId": 37980,
    "rank": 6,
    "density": 12118
  },
  {
    "pop2023": 1466791,
    "pop2022": 1456069,
    "pop2020": 1434625,
    "pop2010": 1327407,
    "growth": 0.00736,
    "usps": "TX",
    "geoid": 4865000,
    "ansicode": 2411774,
    "name": "San Antonio",
    "lsad": "2",
    "funcstat": 0,
    "aland": 1256440000,
    "awater": 14515600,
    "aland_sqmi": 485.113,
    "awater_sqmi": 5.605,
    "intptlat": 29.4659,
    "intptlong": -98.5247,
    "slug": "san-antonio-tx",
    "metroId": 41700,
    "rank": 7,
    "density": 3024
  },
  {
    "pop2023": 1410791,
    "pop2022": 1402838,
    "pop2020": 1386932,
    "pop2010": 1307402,
    "growth": 0.00567,
    "usps": "CA",
    "geoid": 666000,
    "ansicode": 2411782,
    "name": "San Diego",
    "lsad": "2",
    "funcstat": 0,
    "aland": 844018000,
    "awater": 120537000,
    "aland_sqmi": 325.877,
    "awater_sqmi": 46.54,
    "intptlat": 32.815,
    "intptlong": -117.136,
    "slug": "san-diego-ca",
    "metroId": 41740,
    "rank": 8,
    "density": 4329
  },
  {
    "pop2023": 1336347,
    "pop2022": 1325691,
    "pop2020": 1304379,
    "pop2010": 1197816,
    "growth": 0.00804,
    "usps": "TX",
    "geoid": 4819000,
    "ansicode": 2410288,
    "name": "Dallas",
    "lsad": "2",
    "funcstat": 0,
    "aland": 879911000,
    "awater": 115783000,
    "aland_sqmi": 339.736,
    "awater_sqmi": 44.704,
    "intptlat": 32.7933,
    "intptlong": -96.7665,
    "slug": "dallas-tx",
    "metroId": 19100,
    "rank": 9,
    "density": 3933
  },
  {
    "pop2023": 1033430,
    "pop2022": 1026700,
    "pop2020": 1013240,
    "pop2010": 945942,
    "growth": 0.00655,
    "usps": "CA",
    "geoid": 668000,
    "ansicode": 2411790,
    "name": "San Jose",
    "lsad": "2",
    "funcstat": 0,
    "aland": 460521000,
    "awater": 8129850,
    "aland_sqmi": 177.808,
    "awater_sqmi": 3.139,
    "intptlat": 37.2967,
    "intptlong": -121.819,
    "slug": "san-jose-ca",
    "metroId": 41940,
    "rank": 10,
    "density": 5812
  },
  {
    "pop2023": 1013293,
    "pop2022": 996147,
    "pop2020": 961855,
    "pop2010": 790390,
    "growth": 0.01721,
    "usps": "TX",
    "geoid": 4805000,
    "ansicode": 2409761,
    "name": "Austin",
    "lsad": "2",
    "funcstat": 0,
    "aland": 828638000,
    "awater": 17024700,
    "aland_sqmi": 319.939,
    "awater_sqmi": 6.573,
    "intptlat": 30.3012,
    "intptlong": -97.7527,
    "slug": "austin-tx",
    "metroId": 12420,
    "rank": 11,
    "density": 3167
  },
  {
    "pop2023": 987960,
    "pop2022": 975177,
    "pop2020": 949611,
    "pop2010": 821784,
    "growth": 0.01311,
    "usps": "FL",
    "geoid": 1235000,
    "ansicode": 2404783,
    "name": "Jacksonville",
    "lsad": "2",
    "funcstat": 0,
    "aland": 1935930000,
    "awater": 329458000,
    "aland_sqmi": 747.467,
    "awater_sqmi": 127.204,
    "intptlat": 30.3369,
    "intptlong": -81.6616,
    "slug": "jacksonville-fl",
    "metroId": 27260,
    "rank": 12,
    "density": 1322
  },
  {
    "pop2023": 972228,
    "pop2022": 954457,
    "pop2020": 918915,
    "pop2010": 741206,
    "growth": 0.01862,
    "usps": "TX",
    "geoid": 4827000,
    "ansicode": 2410531,
    "name": "Fort Worth",
    "lsad": "2",
    "funcstat": 0,
    "aland": 895059000,
    "awater": 21698300,
    "aland_sqmi": 345.584,
    "awater_sqmi": 8.378,
    "intptlat": 32.7815,
    "intptlong": -97.3467,
    "slug": "fort-worth-tx",
    "metroId": 19100,
    "rank": 13,
    "density": 2813
  },
  {
    "pop2023": 941364,
    "pop2022": 929492,
    "pop2020": 905748,
    "pop2010": 787033,
    "growth": 0.01277,
    "usps": "OH",
    "geoid": 3918000,
    "ansicode": 1086101,
    "name": "Columbus",
    "lsad": "2",
    "funcstat": 0,
    "aland": 567718000,
    "awater": 15174700,
    "aland_sqmi": 219.197,
    "awater_sqmi": 5.859,
    "intptlat": 39.9852,
    "intptlong": -82.9848,
    "slug": "columbus-oh",
    "metroId": 18140,
    "rank": 14,
    "density": 4295
  },
  {
    "pop2023": 917527,
    "pop2022": 903211,
    "pop2020": 874579,
    "pop2010": 731424,
    "growth": 0.01585,
    "usps": "NC",
    "geoid": 3712000,
    "ansicode": 2404032,
    "name": "Charlotte",
    "lsad": "2",
    "funcstat": 0,
    "aland": 795744000,
    "awater": 5151780,
    "aland_sqmi": 307.238,
    "awater_sqmi": 1.989,
    "intptlat": 35.2079,
    "intptlong": -80.8301,
    "slug": "charlotte-nc",
    "metroId": 16740,
    "rank": 15,
    "density": 2986
  },
  {
    "pop2023": 907802,
    "pop2022": 901082,
    "pop2020": 887642,
    "pop2010": 820445,
    "growth": 0.00746,
    "usps": "IN",
    "geoid": 1836003,
    "ansicode": 2395424,
    "name": "Indianapolis",
    "lsad": "0",
    "funcstat": 0,
    "aland": 936465000,
    "awater": 16419900,
    "aland_sqmi": 361.571,
    "awater_sqmi": 6.34,
    "intptlat": 39.7767,
    "intptlong": -86.1459,
    "slug": "indianapolis-in",
    "metroId": 26900,
    "rank": 16,
    "density": 2511
  },
  {
    "pop2023": 894584,
    "pop2022": 887711,
    "pop2020": 873965,
    "pop2010": 805235,
    "growth": 0.00774,
    "usps": "CA",
    "geoid": 667000,
    "ansicode": 2411786,
    "name": "San Francisco",
    "lsad": "2",
    "funcstat": 0,
    "aland": 121478000,
    "awater": 479115000,
    "aland_sqmi": 46.903,
    "awater_sqmi": 184.987,
    "intptlat": 37.7272,
    "intptlong": -123.032,
    "slug": "san-francisco-ca",
    "metroId": 41860,
    "rank": 17,
    "density": 19073
  },
  {
    "pop2023": 775523,
    "pop2022": 762687,
    "pop2020": 737015,
    "pop2010": 608660,
    "growth": 0.01683,
    "usps": "WA",
    "geoid": 5363000,
    "ansicode": 2411856,
    "name": "Seattle",
    "lsad": "2",
    "funcstat": 0,
    "aland": 217201000,
    "awater": 150761000,
    "aland_sqmi": 83.862,
    "awater_sqmi": 58.209,
    "intptlat": 47.6194,
    "intptlong": -122.351,
    "slug": "seattle-wa",
    "metroId": 42660,
    "rank": 18,
    "density": 9248
  },
  {
    "pop2023": 750130,
    "pop2022": 738594,
    "pop2020": 715522,
    "pop2010": 600158,
    "growth": 0.01562,
    "usps": "CO",
    "geoid": 820000,
    "ansicode": 2410324,
    "name": "Denver",
    "lsad": "2",
    "funcstat": 0,
    "aland": 397025000,
    "awater": 4245400,
    "aland_sqmi": 153.292,
    "awater_sqmi": 1.639,
    "intptlat": 39.7618,
    "intptlong": -104.881,
    "slug": "denver-co",
    "metroId": 19740,
    "rank": 19,
    "density": 4893
  },
  {
    "pop2023": 715913,
    "pop2022": 707091,
    "pop2020": 689447,
    "pop2010": 601222,
    "growth": 0.01248,
    "usps": "TN",
    "geoid": 4752006,
    "ansicode": 2405092,
    "name": "Nashville",
    "lsad": "0",
    "funcstat": 0,
    "aland": 1231650000,
    "awater": 56229800,
    "aland_sqmi": 475.543,
    "awater_sqmi": 21.71,
    "intptlat": 36.1718,
    "intptlong": -86.785,
    "slug": "nashville-tn",
    "metroId": 34980,
    "rank": 20,
    "density": 1505
  },
  {
    "pop2023": 715891,
    "pop2022": 707109,
    "pop2020": 689545,
    "pop2010": 601723,
    "growth": 0.01242,
    "usps": "DC",
    "geoid": 1150000,
    "ansicode": 2390665,
    "name": "Washington",
    "lsad": "2",
    "funcstat": 0,
    "aland": 158340000,
    "awater": 18687200,
    "aland_sqmi": 61.136,
    "awater_sqmi": 7.215,
    "intptlat": 38.9042,
    "intptlong": -77.0165,
    "slug": "washington-dc",
    "metroId": 47900,
    "rank": 21,
    "density": 11710
  },
  {
    "pop2023": 711372,
    "pop2022": 701266,
    "pop2020": 681054,
    "pop2010": 579999,
    "growth": 0.01441,
    "usps": "OK",
    "geoid": 4055000,
    "ansicode": 2411311,
    "name": "Oklahoma City",
    "lsad": "2",
    "funcstat": 0,
    "aland": 1570680000,
    "awater": 37116500,
    "aland_sqmi": 606.445,
    "awater_sqmi": 14.331,
    "intptlat": 35.4671,
    "intptlong": -97.5137,
    "slug": "oklahoma-city-ok",
    "metroId": 36420,
    "rank": 22,
    "density": 1173
  },
  {
    "pop2023": 693062,
    "pop2022": 687257,
    "pop2020": 675647,
    "pop2010": 617594,
    "growth": 0.00845,
    "usps": "MA",
    "geoid": 2507000,
    "ansicode": 619463,
    "name": "Boston",
    "lsad": "2",
    "funcstat": 0,
    "aland": 125197000,
    "awater": 106914000,
    "aland_sqmi": 48.339,
    "awater_sqmi": 41.28,
    "intptlat": 42.3386,
    "intptlong": -71.0182,
    "slug": "boston-ma",
    "metroId": null,
    "rank": 23,
    "density": 14338
  },
  {
    "pop2023": 687722,
    "pop2022": 684753,
    "pop2020": 678815,
    "pop2010": 649121,
    "growth": 0.00434,
    "usps": "TX",
    "geoid": 4824000,
    "ansicode": 2410414,
    "name": "El Paso",
    "lsad": "2",
    "funcstat": 0,
    "aland": 666715000,
    "awater": 2089730,
    "aland_sqmi": 257.42,
    "awater_sqmi": 0.807,
    "intptlat": 31.8478,
    "intptlong": -106.431,
    "slug": "el-paso-tx",
    "metroId": 21340,
    "rank": 24,
    "density": 2672
  },
  {
    "pop2023": 673122,
    "pop2022": 666249,
    "pop2020": 652503,
    "pop2010": 583776,
    "growth": 0.01032,
    "usps": "OR",
    "geoid": 4159000,
    "ansicode": 2411471,
    "name": "Portland",
    "lsad": "2",
    "funcstat": 0,
    "aland": 345558000,
    "awater": 29925600,
    "aland_sqmi": 133.421,
    "awater_sqmi": 11.554,
    "intptlat": 45.5369,
    "intptlong": -122.65,
    "slug": "portland-or",
    "metroId": 38900,
    "rank": 25,
    "density": 5045
  },
  {
    "pop2023": 659348,
    "pop2022": 653533,
    "pop2020": 641903,
    "pop2010": 583756,
    "growth": 0.0089,
    "usps": "NV",
    "geoid": 3240000,
    "ansicode": 2411630,
    "name": "Las Vegas",
    "lsad": "2",
    "funcstat": 0,
    "aland": 367175000,
    "awater": 138524,
    "aland_sqmi": 141.767,
    "awater_sqmi": 0.053,
    "intptlat": 36.2335,
    "intptlong": -115.264,
    "slug": "las-vegas-nv",
    "metroId": 29820,
    "rank": 26,
    "density": 4651
  },
  {
    "pop2023": 628970,
    "pop2022": 630348,
    "pop2020": 633104,
    "pop2010": 646889,
    "growth": -0.00219,
    "usps": "TN",
    "geoid": 4748000,
    "ansicode": 2405068,
    "name": "Memphis",
    "lsad": "2",
    "funcstat": 0,
    "aland": 821950000,
    "awater": 23284400,
    "aland_sqmi": 317.357,
    "awater_sqmi": 8.99,
    "intptlat": 35.1028,
    "intptlong": -89.9774,
    "slug": "memphis-tn",
    "metroId": 32820,
    "rank": 27,
    "density": 1982
  },
  {
    "pop2023": 616710,
    "pop2022": 624177,
    "pop2020": 639111,
    "pop2010": 713777,
    "growth": -0.01196,
    "usps": "MI",
    "geoid": 2622000,
    "ansicode": 1626181,
    "name": "Detroit",
    "lsad": "2",
    "funcstat": 0,
    "aland": 359269000,
    "awater": 10807700,
    "aland_sqmi": 138.715,
    "awater_sqmi": 4.173,
    "intptlat": 42.383,
    "intptlong": -83.1022,
    "slug": "detroit-mi",
    "metroId": 19820,
    "rank": 28,
    "density": 4446
  },
  {
    "pop2023": 575133,
    "pop2022": 578658,
    "pop2020": 585708,
    "pop2010": 620961,
    "growth": -0.00609,
    "usps": "MD",
    "geoid": 2404000,
    "ansicode": 1702381,
    "name": "Baltimore",
    "lsad": "2",
    "funcstat": 0,
    "aland": 209651000,
    "awater": 28758700,
    "aland_sqmi": 80.947,
    "awater_sqmi": 11.104,
    "intptlat": 39.3,
    "intptlong": -76.6105,
    "slug": "baltimore-md",
    "metroId": 12580,
    "rank": 29,
    "density": 7105
  },
  {
    "pop2023": 571939,
    "pop2022": 573700,
    "pop2020": 577222,
    "pop2010": 594833,
    "growth": -0.00307,
    "usps": "WI",
    "geoid": 5553000,
    "ansicode": 1583724,
    "name": "Milwaukee",
    "lsad": "2",
    "funcstat": 0,
    "aland": 249115000,
    "awater": 1634100,
    "aland_sqmi": 96.184,
    "awater_sqmi": 0.631,
    "intptlat": 43.0633,
    "intptlong": -87.9667,
    "slug": "milwaukee-wi",
    "metroId": 33340,
    "rank": 30,
    "density": 5946
  },
  {
    "pop2023": 570172,
    "pop2022": 568301,
    "pop2020": 564559,
    "pop2010": 545852,
    "growth": 0.00329,
    "usps": "NM",
    "geoid": 3502000,
    "ansicode": 2409678,
    "name": "Albuquerque",
    "lsad": "2",
    "funcstat": 0,
    "aland": 484883000,
    "awater": 4290890,
    "aland_sqmi": 187.215,
    "awater_sqmi": 1.657,
    "intptlat": 35.1048,
    "intptlong": -106.647,
    "slug": "albuquerque-nm",
    "metroId": 10740,
    "rank": 31,
    "density": 3046
  },
  {
    "pop2023": 556339,
    "pop2022": 551595,
    "pop2020": 542107,
    "pop2010": 494665,
    "growth": 0.0086,
    "usps": "CA",
    "geoid": 627000,
    "ansicode": 2410546,
    "name": "Fresno",
    "lsad": "2",
    "funcstat": 0,
    "aland": 297136000,
    "awater": 3127480,
    "aland_sqmi": 114.725,
    "awater_sqmi": 1.208,
    "intptlat": 36.7827,
    "intptlong": -119.794,
    "slug": "fresno-ca",
    "metroId": 23420,
    "rank": 32,
    "density": 4849
  },
  {
    "pop2023": 549382,
    "pop2022": 547131,
    "pop2020": 542629,
    "pop2010": 520116,
    "growth": 0.00411,
    "usps": "AZ",
    "geoid": 477000,
    "ansicode": 2412104,
    "name": "Tucson",
    "lsad": "2",
    "funcstat": 0,
    "aland": 616454000,
    "awater": 819364,
    "aland_sqmi": 238.014,
    "awater_sqmi": 0.316,
    "intptlat": 32.153,
    "intptlong": -110.871,
    "slug": "tucson-az",
    "metroId": 46060,
    "rank": 33,
    "density": 2308
  },
  {
    "pop2023": 542481,
    "pop2022": 536635,
    "pop2020": 524943,
    "pop2010": 466488,
    "growth": 0.01089,
    "usps": "CA",
    "geoid": 664000,
    "ansicode": 2411751,
    "name": "Sacramento",
    "lsad": "2",
    "funcstat": 0,
    "aland": 253119000,
    "awater": 5591300,
    "aland_sqmi": 97.73,
    "awater_sqmi": 2.159,
    "intptlat": 38.5666,
    "intptlong": -121.469,
    "slug": "sacramento-ca",
    "metroId": 40900,
    "rank": 34,
    "density": 5551
  },
  {
    "pop2023": 523824,
    "pop2022": 517302,
    "pop2020": 504258,
    "pop2010": 439041,
    "growth": 0.01261,
    "usps": "AZ",
    "geoid": 446000,
    "ansicode": 2411087,
    "name": "Mesa",
    "lsad": "2",
    "funcstat": 0,
    "aland": 357639000,
    "awater": 1955880,
    "aland_sqmi": 138.085,
    "awater_sqmi": 0.755,
    "intptlat": 33.402,
    "intptlong": -111.718,
    "slug": "mesa-az",
    "metroId": 38060,
    "rank": 35,
    "density": 3793
  },
  {
    "pop2023": 522580,
    "pop2022": 517750,
    "pop2020": 508090,
    "pop2010": 459787,
    "growth": 0.00933,
    "usps": "MO",
    "geoid": 2938000,
    "ansicode": 2395492,
    "name": "Kansas City",
    "lsad": "2",
    "funcstat": 0,
    "aland": 815551000,
    "awater": 10593100,
    "aland_sqmi": 314.886,
    "awater_sqmi": 4.09,
    "intptlat": 39.1252,
    "intptlong": -94.5503,
    "slug": "kansas-city-mo",
    "metroId": 28140,
    "rank": 36,
    "density": 1660
  },
  {
    "pop2023": 522328,
    "pop2022": 514457,
    "pop2020": 498715,
    "pop2010": 420003,
    "growth": 0.0153,
    "usps": "GA",
    "geoid": 1304000,
    "ansicode": 2403126,
    "name": "Atlanta",
    "lsad": "2",
    "funcstat": 0,
    "aland": 351557000,
    "awater": 2684130,
    "aland_sqmi": 135.737,
    "awater_sqmi": 1.036,
    "intptlat": 33.7629,
    "intptlong": -84.4227,
    "slug": "atlanta-ga",
    "metroId": 12060,
    "rank": 37,
    "density": 3848
  },
  {
    "pop2023": 509178,
    "pop2022": 501469,
    "pop2020": 486051,
    "pop2010": 408958,
    "growth": 0.01537,
    "usps": "NE",
    "geoid": 3137000,
    "ansicode": 2396064,
    "name": "Omaha",
    "lsad": "2",
    "funcstat": 0,
    "aland": 365144000,
    "awater": 9338770,
    "aland_sqmi": 140.983,
    "awater_sqmi": 3.606,
    "intptlat": 41.2631,
    "intptlong": -96.052,
    "slug": "omaha-ne",
    "metroId": 36540,
    "rank": 38,
    "density": 3612
  },
  {
    "pop2023": 497720,
    "pop2022": 491467,
    "pop2020": 478961,
    "pop2010": 416427,
    "growth": 0.01272,
    "usps": "CO",
    "geoid": 816000,
    "ansicode": 2410198,
    "name": "Colorado Springs",
    "lsad": "2",
    "funcstat": 0,
    "aland": 505047000,
    "awater": 937374,
    "aland_sqmi": 195,
    "awater_sqmi": 0.362,
    "intptlat": 38.8673,
    "intptlong": -104.761,
    "slug": "colorado-springs-co",
    "metroId": 17820,
    "rank": 39,
    "density": 2552
  },
  {
    "pop2023": 486796,
    "pop2022": 480419,
    "pop2020": 467665,
    "pop2010": 403892,
    "growth": 0.01327,
    "usps": "NC",
    "geoid": 3755000,
    "ansicode": 2404590,
    "name": "Raleigh",
    "lsad": "2",
    "funcstat": 0,
    "aland": 377844000,
    "awater": 2830540,
    "aland_sqmi": 145.886,
    "awater_sqmi": 1.093,
    "intptlat": 35.8302,
    "intptlong": -78.6415,
    "slug": "raleigh-nc",
    "metroId": 39580,
    "rank": 40,
    "density": 3337
  },
  {
    "pop2023": 468086,
    "pop2022": 467638,
    "pop2020": 466742,
    "pop2010": 462257,
    "growth": 0.00096,
    "usps": "CA",
    "geoid": 643000,
    "ansicode": 2410866,
    "name": "Long Beach",
    "lsad": "2",
    "funcstat": 0,
    "aland": 131302000,
    "awater": 75937500,
    "aland_sqmi": 50.696,
    "awater_sqmi": 29.32,
    "intptlat": 33.7781,
    "intptlong": -118.167,
    "slug": "long-beach-ca",
    "metroId": 31080,
    "rank": 41,
    "density": 9233
  },
  {
    "pop2023": 465914,
    "pop2022": 463766,
    "pop2020": 459470,
    "pop2010": 437994,
    "growth": 0.00463,
    "usps": "VA",
    "geoid": 5182000,
    "ansicode": 1498559,
    "name": "Virginia Beach",
    "lsad": "2",
    "funcstat": 0,
    "aland": 633829000,
    "awater": 654687000,
    "aland_sqmi": 244.723,
    "awater_sqmi": 252.776,
    "intptlat": 36.78,
    "intptlong": -76.0252,
    "slug": "virginia-beach-va",
    "metroId": 47260,
    "rank": 42,
    "density": 1904
  },
  {
    "pop2023": 455622,
    "pop2022": 450630,
    "pop2020": 440646,
    "pop2010": 390724,
    "growth": 0.01108,
    "usps": "CA",
    "geoid": 653000,
    "ansicode": 2411292,
    "name": "Oakland",
    "lsad": "2",
    "funcstat": 0,
    "aland": 144763000,
    "awater": 56965800,
    "aland_sqmi": 55.893,
    "awater_sqmi": 21.995,
    "intptlat": 37.7698,
    "intptlong": -122.226,
    "slug": "oakland-ca",
    "metroId": 41860,
    "rank": 43,
    "density": 8152
  },
  {
    "pop2023": 455075,
    "pop2022": 450797,
    "pop2020": 442241,
    "pop2010": 399457,
    "growth": 0.00949,
    "usps": "FL",
    "geoid": 1245000,
    "ansicode": 2404247,
    "name": "Miami",
    "lsad": "2",
    "funcstat": 0,
    "aland": 93230500,
    "awater": 51999600,
    "aland_sqmi": 35.996,
    "awater_sqmi": 20.077,
    "intptlat": 25.7752,
    "intptlong": -80.2086,
    "slug": "miami-fl",
    "metroId": 33100,
    "rank": 44,
    "density": 12642
  },
  {
    "pop2023": 444168,
    "pop2022": 439430,
    "pop2020": 429954,
    "pop2010": 382578,
    "growth": 0.01078,
    "usps": "MN",
    "geoid": 2743000,
    "ansicode": 2395345,
    "name": "Minneapolis",
    "lsad": "2",
    "funcstat": 0,
    "aland": 139858000,
    "awater": 9027530,
    "aland_sqmi": 54,
    "awater_sqmi": 3.486,
    "intptlat": 44.9633,
    "intptlong": -93.2683,
    "slug": "minneapolis-mn",
    "metroId": 33460,
    "rank": 45,
    "density": 8225
  },
  {
    "pop2023": 420246,
    "pop2022": 414649,
    "pop2020": 403455,
    "pop2010": 347483,
    "growth": 0.0135,
    "usps": "CA",
    "geoid": 603526,
    "ansicode": 2409774,
    "name": "Bakersfield",
    "lsad": "2",
    "funcstat": 0,
    "aland": 387871000,
    "awater": 3792000,
    "aland_sqmi": 149.758,
    "awater_sqmi": 1.464,
    "intptlat": 35.3536,
    "intptlong": -119.037,
    "slug": "bakersfield-ca",
    "metroId": 12540,
    "rank": 46,
    "density": 2806
  },
  {
    "pop2023": 419414,
    "pop2022": 417298,
    "pop2020": 413066,
    "pop2010": 391906,
    "growth": 0.00507,
    "usps": "OK",
    "geoid": 4075000,
    "ansicode": 2412110,
    "name": "Tulsa",
    "lsad": "2",
    "funcstat": 0,
    "aland": 511465000,
    "awater": 11126700,
    "aland_sqmi": 197.478,
    "awater_sqmi": 4.296,
    "intptlat": 36.1279,
    "intptlong": -95.9023,
    "slug": "tulsa-ok",
    "metroId": 46140,
    "rank": 47,
    "density": 2124
  },
  {
    "pop2023": 404615,
    "pop2022": 398497,
    "pop2020": 386261,
    "pop2010": 325078,
    "growth": 0.01535,
    "usps": "CO",
    "geoid": 804000,
    "ansicode": 2409757,
    "name": "Aurora",
    "lsad": "2",
    "funcstat": 0,
    "aland": 399562000,
    "awater": 1650190,
    "aland_sqmi": 154.272,
    "awater_sqmi": 0.637,
    "intptlat": 39.688,
    "intptlong": -104.69,
    "slug": "aurora-co",
    "metroId": 19740,
    "rank": 48,
    "density": 2623
  },
  {
    "pop2023": 402915,
    "pop2022": 400032,
    "pop2020": 394266,
    "pop2010": 365438,
    "growth": 0.00721,
    "usps": "TX",
    "geoid": 4804000,
    "ansicode": 2409731,
    "name": "Arlington",
    "lsad": "2",
    "funcstat": 0,
    "aland": 248067000,
    "awater": 9470270,
    "aland_sqmi": 95.779,
    "awater_sqmi": 3.656,
    "intptlat": 32.7007,
    "intptlong": -97.1247,
    "slug": "arlington-tx",
    "metroId": 19100,
    "rank": 49,
    "density": 4207
  },
  {
    "pop2023": 402080,
    "pop2022": 400564,
    "pop2020": 397532,
    "pop2010": 382368,
    "growth": 0.00378,
    "usps": "KS",
    "geoid": 2079000,
    "ansicode": 485662,
    "name": "Wichita",
    "lsad": "2",
    "funcstat": 0,
    "aland": 418704000,
    "awater": 11667800,
    "aland_sqmi": 161.662,
    "awater_sqmi": 4.505,
    "intptlat": 37.6906,
    "intptlong": -97.3458,
    "slug": "wichita-ks",
    "metroId": 48620,
    "rank": 50,
    "density": 2487
  },
  {
    "pop2023": 399734,
    "pop2022": 394809,
    "pop2020": 384959,
    "pop2010": 335709,
    "growth": 0.01247,
    "usps": "FL",
    "geoid": 1271000,
    "ansicode": 2405568,
    "name": "Tampa",
    "lsad": "2",
    "funcstat": 0,
    "aland": 295302000,
    "awater": 160099000,
    "aland_sqmi": 114.017,
    "awater_sqmi": 61.815,
    "intptlat": 27.9679,
    "intptlong": -82.4746,
    "slug": "tampa-fl",
    "metroId": 45300,
    "rank": 51,
    "density": 3506
  },
  {
    "pop2023": 396048,
    "pop2022": 392031,
    "pop2020": 383997,
    "pop2010": 343829,
    "growth": 0.01025,
    "usps": "LA",
    "geoid": 2255000,
    "ansicode": 545142,
    "name": "New Orleans",
    "lsad": "2",
    "funcstat": 0,
    "aland": 438831000,
    "awater": 467268000,
    "aland_sqmi": 169.434,
    "awater_sqmi": 180.413,
    "intptlat": 30.0534,
    "intptlong": -89.9345,
    "slug": "new-orleans-la",
    "metroId": 35380,
    "rank": 52,
    "density": 2337
  },
  {
    "pop2023": 365367,
    "pop2022": 367786,
    "pop2020": 372624,
    "pop2010": 396815,
    "growth": -0.00658,
    "usps": "OH",
    "geoid": 3916000,
    "ansicode": 1085963,
    "name": "Cleveland",
    "lsad": "2",
    "funcstat": 0,
    "aland": 201227000,
    "awater": 12336400,
    "aland_sqmi": 77.694,
    "awater_sqmi": 4.763,
    "intptlat": 41.4785,
    "intptlong": -81.6794,
    "slug": "cleveland-oh",
    "metroId": 17460,
    "rank": 53,
    "density": 4703
  },
  {
    "pop2023": 355077,
    "pop2022": 353706,
    "pop2020": 350964,
    "pop2010": 337256,
    "growth": 0.00388,
    "usps": "HI",
    "geoid": 1571550,
    "ansicode": 2630783,
    "name": "Honolulu",
    "lsad": "5",
    "funcstat": 0,
    "aland": 156807000,
    "awater": 20487500,
    "aland_sqmi": 60.544,
    "awater_sqmi": 7.91,
    "intptlat": 21.3243,
    "intptlong": -157.848,
    "slug": "honolulu-hi",
    "metroId": null,
    "rank": 54,
    "density": 5865
  },
  {
    "pop2023": 349992,
    "pop2022": 348936,
    "pop2020": 346824,
    "pop2010": 336265,
    "growth": 0.00303,
    "usps": "CA",
    "geoid": 602000,
    "ansicode": 2409704,
    "name": "Anaheim",
    "lsad": "2",
    "funcstat": 0,
    "aland": 130329000,
    "awater": 1567020,
    "aland_sqmi": 50.32,
    "awater_sqmi": 0.605,
    "intptlat": 33.8236,
    "intptlong": -118.016,
    "slug": "anaheim-ca",
    "metroId": 31080,
    "rank": 55,
    "density": 6955
  },
  {
    "pop2023": 336260,
    "pop2022": 326730,
    "pop2020": 307670,
    "pop2010": 212375,
    "growth": 0.02917,
    "usps": "CA",
    "geoid": 636770,
    "ansicode": 2410116,
    "name": "Irvine",
    "lsad": "2",
    "funcstat": 0,
    "aland": 169953000,
    "awater": 808586,
    "aland_sqmi": 65.619,
    "awater_sqmi": 0.312,
    "intptlat": 33.6784,
    "intptlong": -117.771,
    "slug": "irvine-ca",
    "metroId": null,
    "rank": 56,
    "density": 5124
  },
  {
    "pop2023": 335574,
    "pop2022": 329586,
    "pop2020": 317610,
    "pop2010": 257729,
    "growth": 0.01817,
    "usps": "NV",
    "geoid": 3231900,
    "ansicode": 2410741,
    "name": "Henderson",
    "lsad": "2",
    "funcstat": 0,
    "aland": 274750000,
    "awater": 1272340,
    "aland_sqmi": 106.082,
    "awater_sqmi": 0.491,
    "intptlat": 36.0102,
    "intptlong": -115.036,
    "slug": "henderson-nv",
    "metroId": 29820,
    "rank": 57,
    "density": 3163
  },
  {
    "pop2023": 330601,
    "pop2022": 327924,
    "pop2020": 322570,
    "pop2010": 295803,
    "growth": 0.00816,
    "usps": "KY",
    "geoid": 2146027,
    "ansicode": 2405089,
    "name": "Lexington",
    "lsad": "U",
    "funcstat": 0,
    "aland": 734616000,
    "awater": 4922120,
    "aland_sqmi": 283.637,
    "awater_sqmi": 1.9,
    "intptlat": 38.0407,
    "intptlong": -84.4583,
    "slug": "lexington-ky",
    "metroId": 30460,
    "rank": 58,
    "density": 1166
  },
  {
    "pop2023": 329534,
    "pop2022": 326624,
    "pop2020": 320804,
    "pop2010": 291707,
    "growth": 0.00891,
    "usps": "CA",
    "geoid": 675000,
    "ansicode": 2411987,
    "name": "Stockton",
    "lsad": "2",
    "funcstat": 0,
    "aland": 161026000,
    "awater": 7985700,
    "aland_sqmi": 62.172,
    "awater_sqmi": 3.083,
    "intptlat": 37.9763,
    "intptlong": -121.313,
    "slug": "stockton-ca",
    "metroId": 44700,
    "rank": 59,
    "density": 5300
  },
  {
    "pop2023": 328354,
    "pop2022": 321427,
    "pop2020": 307573,
    "pop2010": 238300,
    "growth": 0.02155,
    "usps": "FL",
    "geoid": 1253000,
    "ansicode": 2404443,
    "name": "Orlando",
    "lsad": "2",
    "funcstat": 0,
    "aland": 286346000,
    "awater": 21332100,
    "aland_sqmi": 110.559,
    "awater_sqmi": 8.236,
    "intptlat": 28.4246,
    "intptlong": -81.227,
    "slug": "orlando-fl",
    "metroId": 36740,
    "rank": 60,
    "density": 2970
  },
  {
    "pop2023": 323749,
    "pop2022": 344794,
    "pop2020": 386884,
    "pop2010": 597337,
    "growth": -0.06104,
    "usps": "KY",
    "geoid": 2148006,
    "ansicode": 1967434,
    "name": "Louisville",
    "lsad": "0",
    "funcstat": 0,
    "aland": 682291000,
    "awater": 30626100,
    "aland_sqmi": 263.434,
    "awater_sqmi": 11.825,
    "intptlat": 38.1654,
    "intptlong": -85.6474,
    "slug": "louisville-ky",
    "metroId": 31140,
    "rank": 61,
    "density": 1229
  },
  {
    "pop2023": 321872,
    "pop2022": 318431,
    "pop2020": 311549,
    "pop2010": 277140,
    "growth": 0.01081,
    "usps": "NJ",
    "geoid": 3451000,
    "ansicode": 885317,
    "name": "Newark",
    "lsad": "2",
    "funcstat": 0,
    "aland": 62531400,
    "awater": 4509800,
    "aland_sqmi": 24.144,
    "awater_sqmi": 1.741,
    "intptlat": 40.7242,
    "intptlong": -74.1726,
    "slug": "newark-nj",
    "metroId": 35620,
    "rank": 62,
    "density": 13331
  },
  {
    "pop2023": 321658,
    "pop2022": 320393,
    "pop2020": 317863,
    "pop2010": 305215,
    "growth": 0.00395,
    "usps": "TX",
    "geoid": 4817000,
    "ansicode": 2410234,
    "name": "Corpus Christi",
    "lsad": "2",
    "funcstat": 0,
    "aland": 413630000,
    "awater": 852166000,
    "aland_sqmi": 159.703,
    "awater_sqmi": 329.023,
    "intptlat": 27.7543,
    "intptlong": -97.1734,
    "slug": "corpus-christi-tx",
    "metroId": 18580,
    "rank": 63,
    "density": 2014
  },
  {
    "pop2023": 319465,
    "pop2022": 316819,
    "pop2020": 311527,
    "pop2010": 285068,
    "growth": 0.00835,
    "usps": "MN",
    "geoid": 2758000,
    "ansicode": 2396511,
    "name": "St. Paul",
    "lsad": "2",
    "funcstat": 0,
    "aland": 134622000,
    "awater": 10925900,
    "aland_sqmi": 51.978,
    "awater_sqmi": 4.219,
    "intptlat": 44.9489,
    "intptlong": -93.1041,
    "slug": "st-paul-mn",
    "metroId": 33460,
    "rank": 64,
    "density": 6146
  },
  {
    "pop2023": 318337,
    "pop2022": 317224,
    "pop2020": 314998,
    "pop2010": 303871,
    "growth": 0.00351,
    "usps": "CA",
    "geoid": 662000,
    "ansicode": 2410965,
    "name": "Riverside",
    "lsad": "2",
    "funcstat": 0,
    "aland": 210458000,
    "awater": 801713,
    "aland_sqmi": 81.258,
    "awater_sqmi": 0.31,
    "intptlat": 33.9381,
    "intptlong": -117.393,
    "slug": "riverside-ca",
    "metroId": 40140,
    "rank": 65,
    "density": 3918
  },
  {
    "pop2023": 313028,
    "pop2022": 311791,
    "pop2020": 309317,
    "pop2010": 296943,
    "growth": 0.00397,
    "usps": "OH",
    "geoid": 3915000,
    "ansicode": 1086201,
    "name": "Cincinnati",
    "lsad": "2",
    "funcstat": 0,
    "aland": 201594000,
    "awater": 4472880,
    "aland_sqmi": 77.836,
    "awater_sqmi": 1.727,
    "intptlat": 39.1402,
    "intptlong": -84.5058,
    "slug": "cincinnati-oh",
    "metroId": 17140,
    "rank": 66,
    "density": 4022
  },
  {
    "pop2023": 307846,
    "pop2022": 304909,
    "pop2020": 299035,
    "pop2010": 269666,
    "growth": 0.00963,
    "usps": "NC",
    "geoid": 3728000,
    "ansicode": 2403745,
    "name": "Greensboro",
    "lsad": "2",
    "funcstat": 0,
    "aland": 334284000,
    "awater": 13555700,
    "aland_sqmi": 129.068,
    "awater_sqmi": 5.234,
    "intptlat": 36.0951,
    "intptlong": -79.827,
    "slug": "greensboro-nc",
    "metroId": 24660,
    "rank": 67,
    "density": 2385
  },
  {
    "pop2023": 305937,
    "pop2022": 307367,
    "pop2020": 310227,
    "pop2010": 324528,
    "growth": -0.00465,
    "usps": "CA",
    "geoid": 669000,
    "ansicode": 2411814,
    "name": "Santa Ana",
    "lsad": "2",
    "funcstat": 0,
    "aland": 70864700,
    "awater": 79932,
    "aland_sqmi": 27.361,
    "awater_sqmi": 0.031,
    "intptlat": 33.7363,
    "intptlong": -117.883,
    "slug": "santa-ana-ca",
    "metroId": null,
    "rank": 68,
    "density": 11181
  },
  {
    "pop2023": 305904,
    "pop2022": 301419,
    "pop2020": 292449,
    "pop2010": 247597,
    "growth": 0.01488,
    "usps": "NJ",
    "geoid": 3436000,
    "ansicode": 885264,
    "name": "Jersey City",
    "lsad": "2",
    "funcstat": 0,
    "aland": 38185600,
    "awater": 16550000,
    "aland_sqmi": 14.744,
    "awater_sqmi": 6.39,
    "intptlat": 40.7114,
    "intptlong": -74.0648,
    "slug": "jersey-city-nj",
    "metroId": 35620,
    "rank": 69,
    "density": 20748
  },
  {
    "pop2023": 305130,
    "pop2022": 311038,
    "pop2020": 322854,
    "pop2010": 381931,
    "growth": -0.01899,
    "usps": "PR",
    "geoid": 7276770,
    "ansicode": 2414943,
    "name": "San Juan",
    "lsad": "6",
    "funcstat": 0,
    "aland": 102391000,
    "awater": 17802900,
    "aland_sqmi": 39.533,
    "awater_sqmi": 6.874,
    "intptlat": 18.4064,
    "intptlong": -66.064,
    "slug": "san-juan-pr",
    "metroId": 41980,
    "rank": 70,
    "density": 7718
  },
  {
    "pop2023": 302152,
    "pop2022": 302425,
    "pop2020": 302971,
    "pop2010": 305704,
    "growth": -0.0009,
    "usps": "PA",
    "geoid": 4261000,
    "ansicode": 1214818,
    "name": "Pittsburgh",
    "lsad": "2",
    "funcstat": 0,
    "aland": 143424000,
    "awater": 7688210,
    "aland_sqmi": 55.376,
    "awater_sqmi": 2.968,
    "intptlat": 40.4398,
    "intptlong": -79.9763,
    "slug": "pittsburgh-pa",
    "metroId": 38300,
    "rank": 71,
    "density": 5456
  },
  {
    "pop2023": 300892,
    "pop2022": 297622,
    "pop2020": 291082,
    "pop2010": 258379,
    "growth": 0.01099,
    "usps": "NE",
    "geoid": 3128000,
    "ansicode": 2395713,
    "name": "Lincoln",
    "lsad": "2",
    "funcstat": 0,
    "aland": 249217000,
    "awater": 3524100,
    "aland_sqmi": 96.223,
    "awater_sqmi": 1.361,
    "intptlat": 40.809,
    "intptlong": -96.6789,
    "slug": "lincoln-ne",
    "metroId": 30700,
    "rank": 72,
    "density": 3127
  },
  {
    "pop2023": 300060,
    "pop2022": 294542,
    "pop2020": 283506,
    "pop2010": 228330,
    "growth": 0.01873,
    "usps": "NC",
    "geoid": 3719000,
    "ansicode": 2403521,
    "name": "Durham",
    "lsad": "2",
    "funcstat": 0,
    "aland": 290650000,
    "awater": 2164130,
    "aland_sqmi": 112.221,
    "awater_sqmi": 0.836,
    "intptlat": 35.9811,
    "intptlong": -78.9029,
    "slug": "durham-nc",
    "metroId": 20500,
    "rank": 73,
    "density": 2674
  },
  {
    "pop2023": 296262,
    "pop2022": 298034,
    "pop2020": 301578,
    "pop2010": 319294,
    "growth": -0.00595,
    "usps": "MO",
    "geoid": 2965000,
    "ansicode": 767557,
    "name": "St. Louis",
    "lsad": "2",
    "funcstat": 0,
    "aland": 159915000,
    "awater": 11006000,
    "aland_sqmi": 61.744,
    "awater_sqmi": 4.249,
    "intptlat": 38.6357,
    "intptlong": -90.2446,
    "slug": "st-louis-mo",
    "metroId": 41180,
    "rank": 74,
    "density": 4798
  },
  {
    "pop2023": 293189,
    "pop2022": 290624,
    "pop2020": 285494,
    "pop2010": 259841,
    "growth": 0.00883,
    "usps": "TX",
    "geoid": 4858016,
    "ansicode": 2411437,
    "name": "Plano",
    "lsad": "2",
    "funcstat": 0,
    "aland": 185656000,
    "awater": 904814,
    "aland_sqmi": 71.682,
    "awater_sqmi": 0.349,
    "intptlat": 33.0508,
    "intptlong": -96.7479,
    "slug": "plano-tx",
    "metroId": null,
    "rank": 75,
    "density": 4090
  },
  {
    "pop2023": 291073,
    "pop2022": 291131,
    "pop2020": 291247,
    "pop2010": 291826,
    "growth": -0.0002,
    "usps": "AK",
    "geoid": 203000,
    "ansicode": 2419025,
    "name": "Anchorage",
    "lsad": "3",
    "funcstat": 0,
    "aland": 4420590000,
    "awater": 614472000,
    "aland_sqmi": 1706.8,
    "awater_sqmi": 237.249,
    "intptlat": 61.1743,
    "intptlong": -149.284,
    "slug": "anchorage-ak",
    "metroId": 11260,
    "rank": 76,
    "density": 171
  },
  {
    "pop2023": 287945,
    "pop2022": 283959,
    "pop2020": 275987,
    "pop2010": 236123,
    "growth": 0.01404,
    "usps": "AZ",
    "geoid": 412000,
    "ansicode": 2409433,
    "name": "Chandler",
    "lsad": "2",
    "funcstat": 0,
    "aland": 168669000,
    "awater": 182929,
    "aland_sqmi": 65.124,
    "awater_sqmi": 0.071,
    "intptlat": 33.2828,
    "intptlong": -111.852,
    "slug": "chandler-az",
    "metroId": null,
    "rank": 77,
    "density": 4421
  },
  {
    "pop2023": 285756,
    "pop2022": 279810,
    "pop2020": 267918,
    "pop2010": 208453,
    "growth": 0.02125,
    "usps": "AZ",
    "geoid": 427400,
    "ansicode": 2412682,
    "name": "Gilbert",
    "lsad": "4",
    "funcstat": 0,
    "aland": 177348000,
    "awater": 527034,
    "aland_sqmi": 68.475,
    "awater_sqmi": 0.203,
    "intptlat": 33.3102,
    "intptlong": -111.743,
    "slug": "gilbert-az",
    "metroId": null,
    "rank": 78,
    "density": 4173
  },
  {
    "pop2023": 284958,
    "pop2022": 281801,
    "pop2020": 275487,
    "pop2010": 243916,
    "growth": 0.0112,
    "usps": "CA",
    "geoid": 613392,
    "ansicode": 2409461,
    "name": "Chula Vista",
    "lsad": "2",
    "funcstat": 0,
    "aland": 128569000,
    "awater": 6360330,
    "aland_sqmi": 49.641,
    "awater_sqmi": 2.456,
    "intptlat": 32.6277,
    "intptlong": -117.015,
    "slug": "chula-vista-ca",
    "metroId": null,
    "rank": 79,
    "density": 5740
  },
  {
    "pop2023": 283461,
    "pop2022": 281757,
    "pop2020": 278349,
    "pop2010": 261310,
    "growth": 0.00605,
    "usps": "NY",
    "geoid": 3611000,
    "ansicode": 978764,
    "name": "Buffalo",
    "lsad": "2",
    "funcstat": 0,
    "aland": 104578000,
    "awater": 31344700,
    "aland_sqmi": 40.378,
    "awater_sqmi": 12.102,
    "intptlat": 42.8925,
    "intptlong": -78.8597,
    "slug": "buffalo-ny",
    "metroId": 15380,
    "rank": 80,
    "density": 7020
  },
  {
    "pop2023": 280829,
    "pop2022": 277166,
    "pop2020": 269840,
    "pop2010": 233209,
    "growth": 0.01322,
    "usps": "WI",
    "geoid": 5548000,
    "ansicode": 1583625,
    "name": "Madison",
    "lsad": "2",
    "funcstat": 0,
    "aland": 205486000,
    "awater": 56879000,
    "aland_sqmi": 79.339,
    "awater_sqmi": 21.961,
    "intptlat": 43.0878,
    "intptlong": -89.4299,
    "slug": "madison-wi",
    "metroId": 31540,
    "rank": 81,
    "density": 3540
  },
  {
    "pop2023": 276198,
    "pop2022": 271641,
    "pop2020": 262527,
    "pop2010": 216961,
    "growth": 0.01678,
    "usps": "NV",
    "geoid": 3251800,
    "ansicode": 2411273,
    "name": "North Las Vegas",
    "lsad": "2",
    "funcstat": 0,
    "aland": 253859000,
    "awater": 112001,
    "aland_sqmi": 98.015,
    "awater_sqmi": 0.043,
    "intptlat": 36.2857,
    "intptlong": -115.094,
    "slug": "north-las-vegas-nv",
    "metroId": null,
    "rank": 82,
    "density": 2818
  },
  {
    "pop2023": 275847,
    "pop2022": 271953,
    "pop2020": 264165,
    "pop2010": 225221,
    "growth": 0.01432,
    "usps": "NV",
    "geoid": 3260600,
    "ansicode": 2410923,
    "name": "Reno",
    "lsad": "2",
    "funcstat": 0,
    "aland": 281646000,
    "awater": 7338580,
    "aland_sqmi": 108.744,
    "awater_sqmi": 2.833,
    "intptlat": 39.5491,
    "intptlong": -119.85,
    "slug": "reno-nv",
    "metroId": 39900,
    "rank": 83,
    "density": 2537
  },
  {
    "pop2023": 268801,
    "pop2022": 264762,
    "pop2020": 256684,
    "pop2010": 216290,
    "growth": 0.01526,
    "usps": "TX",
    "geoid": 4837000,
    "ansicode": 2410117,
    "name": "Irving",
    "lsad": "2",
    "funcstat": 0,
    "aland": 173684000,
    "awater": 2569520,
    "aland_sqmi": 67.06,
    "awater_sqmi": 0.992,
    "intptlat": 32.8577,
    "intptlong": -96.97,
    "slug": "irving-tx",
    "metroId": null,
    "rank": 84,
    "density": 4008
  },
  {
    "pop2023": 266946,
    "pop2022": 265926,
    "pop2020": 263886,
    "pop2010": 253691,
    "growth": 0.00384,
    "usps": "IN",
    "geoid": 1825000,
    "ansicode": 2394798,
    "name": "Fort Wayne",
    "lsad": "2",
    "funcstat": 0,
    "aland": 286546000,
    "awater": 562505,
    "aland_sqmi": 110.636,
    "awater_sqmi": 0.217,
    "intptlat": 41.0882,
    "intptlong": -85.1439,
    "slug": "fort-wayne-in",
    "metroId": 23060,
    "rank": 85,
    "density": 2413
  },
  {
    "pop2023": 265969,
    "pop2022": 267603,
    "pop2020": 270871,
    "pop2010": 287208,
    "growth": -0.00611,
    "usps": "OH",
    "geoid": 3977000,
    "ansicode": 1086537,
    "name": "Toledo",
    "lsad": "2",
    "funcstat": 0,
    "aland": 208465000,
    "awater": 8657580,
    "aland_sqmi": 80.489,
    "awater_sqmi": 3.343,
    "intptlat": 41.6641,
    "intptlong": -83.5819,
    "slug": "toledo-oh",
    "metroId": 45780,
    "rank": 86,
    "density": 3304
  },
  {
    "pop2023": 265412,
    "pop2022": 262655,
    "pop2020": 257141,
    "pop2010": 229573,
    "growth": 0.0105,
    "usps": "TX",
    "geoid": 4845000,
    "ansicode": 2410892,
    "name": "Lubbock",
    "lsad": "2",
    "funcstat": 0,
    "aland": 348931000,
    "awater": 3227290,
    "aland_sqmi": 134.723,
    "awater_sqmi": 1.246,
    "intptlat": 33.5668,
    "intptlong": -101.888,
    "slug": "lubbock-tx",
    "metroId": 31180,
    "rank": 87,
    "density": 1970
  },
  {
    "pop2023": 262370,
    "pop2022": 261016,
    "pop2020": 258308,
    "pop2010": 244769,
    "growth": 0.00519,
    "usps": "FL",
    "geoid": 1263000,
    "ansicode": 2405401,
    "name": "St. Petersburg",
    "lsad": "2",
    "funcstat": 0,
    "aland": 160228000,
    "awater": 197264000,
    "aland_sqmi": 61.864,
    "awater_sqmi": 76.164,
    "intptlat": 27.7609,
    "intptlong": -82.6434,
    "slug": "st-petersburg-fl",
    "metroId": 45300,
    "rank": 88,
    "density": 4241
  },
  {
    "pop2023": 260938,
    "pop2022": 259027,
    "pop2020": 255205,
    "pop2010": 236091,
    "growth": 0.00738,
    "usps": "TX",
    "geoid": 4841464,
    "ansicode": 2411626,
    "name": "Laredo",
    "lsad": "2",
    "funcstat": 0,
    "aland": 273873000,
    "awater": 3805100,
    "aland_sqmi": 105.743,
    "awater_sqmi": 1.469,
    "intptlat": 27.5604,
    "intptlong": -99.4892,
    "slug": "laredo-tx",
    "metroId": 29700,
    "rank": 89,
    "density": 2468
  },
  {
    "pop2023": 257585,
    "pop2022": 254864,
    "pop2020": 249422,
    "pop2010": 222209,
    "growth": 0.01068,
    "usps": "VA",
    "geoid": 5116000,
    "ansicode": 1498558,
    "name": "Chesapeake",
    "lsad": "2",
    "funcstat": 0,
    "aland": 876738000,
    "awater": 32210000,
    "aland_sqmi": 338.51,
    "awater_sqmi": 12.436,
    "intptlat": 36.6794,
    "intptlong": -76.3018,
    "slug": "chesapeake-va",
    "metroId": null,
    "rank": 90,
    "density": 761
  },
  {
    "pop2023": 255836,
    "pop2022": 244501,
    "pop2020": 221831,
    "pop2010": 108481,
    "growth": 0.04636,
    "usps": "NV",
    "geoid": 3223770,
    "ansicode": 2408084,
    "name": "Enterprise",
    "lsad": "5",
    "funcstat": 0,
    "aland": 132424000,
    "awater": 0,
    "aland_sqmi": 51.129,
    "awater_sqmi": 0,
    "intptlat": 36.0163,
    "intptlong": -115.221,
    "slug": "enterprise-nv",
    "metroId": null,
    "rank": 91,
    "density": 5004
  },
  {
    "pop2023": 255524,
    "pop2022": 253531,
    "pop2020": 249545,
    "pop2010": 229617,
    "growth": 0.00786,
    "usps": "NC",
    "geoid": 3775000,
    "ansicode": 2405771,
    "name": "Winston-Salem",
    "lsad": "2",
    "funcstat": 0,
    "aland": 343469000,
    "awater": 3117860,
    "aland_sqmi": 132.614,
    "awater_sqmi": 1.204,
    "intptlat": 36.1027,
    "intptlong": -80.261,
    "slug": "winston--salem-nc",
    "metroId": 49180,
    "rank": 92,
    "density": 1927
  },
  {
    "pop2023": 254805,
    "pop2022": 252645,
    "pop2020": 248325,
    "pop2010": 226721,
    "growth": 0.00855,
    "usps": "AZ",
    "geoid": 427820,
    "ansicode": 2410596,
    "name": "Glendale",
    "lsad": "2",
    "funcstat": 0,
    "aland": 159523000,
    "awater": 1036610,
    "aland_sqmi": 61.592,
    "awater_sqmi": 0.4,
    "intptlat": 33.5344,
    "intptlong": -112.414,
    "slug": "glendale-az",
    "metroId": null,
    "rank": 93,
    "density": 4137
  },
  {
    "pop2023": 251760,
    "pop2022": 249846,
    "pop2020": 246018,
    "pop2010": 226876,
    "growth": 0.00766,
    "usps": "TX",
    "geoid": 4829000,
    "ansicode": 2410572,
    "name": "Garland",
    "lsad": "2",
    "funcstat": 0,
    "aland": 147783000,
    "awater": 313575,
    "aland_sqmi": 57.06,
    "awater_sqmi": 0.121,
    "intptlat": 32.9098,
    "intptlong": -96.6303,
    "slug": "garland-tx",
    "metroId": null,
    "rank": 94,
    "density": 4412
  },
  {
    "pop2023": 248555,
    "pop2022": 246157,
    "pop2020": 241361,
    "pop2010": 217385,
    "growth": 0.00974,
    "usps": "AZ",
    "geoid": 465000,
    "ansicode": 2411845,
    "name": "Scottsdale",
    "lsad": "2",
    "funcstat": 0,
    "aland": 476525000,
    "awater": 1188550,
    "aland_sqmi": 183.987,
    "awater_sqmi": 0.459,
    "intptlat": 33.6843,
    "intptlong": -111.861,
    "slug": "scottsdale-az",
    "metroId": 38060,
    "rank": 95,
    "density": 1351
  },
  {
    "pop2023": 247949,
    "pop2022": 244847,
    "pop2020": 238643,
    "pop2010": 207627,
    "growth": 0.01267,
    "usps": "VA",
    "geoid": 5103000,
    "ansicode": 2389148,
    "name": "Arlington",
    "lsad": "5",
    "funcstat": 0,
    "aland": 67333000,
    "awater": 273562,
    "aland_sqmi": 25.997,
    "awater_sqmi": 0.106,
    "intptlat": 38.8783,
    "intptlong": -77.1007,
    "slug": "arlington-va",
    "metroId": 47900,
    "rank": 96,
    "density": 9538
  },
  {
    "pop2023": 244687,
    "pop2022": 241686,
    "pop2020": 235684,
    "pop2010": 205671,
    "growth": 0.01242,
    "usps": "ID",
    "geoid": 1608830,
    "ansicode": 2409876,
    "name": "Boise",
    "lsad": "2",
    "funcstat": 0,
    "aland": 216714000,
    "awater": 2489870,
    "aland_sqmi": 83.674,
    "awater_sqmi": 0.961,
    "intptlat": 43.6021,
    "intptlong": -116.231,
    "slug": "boise-id",
    "metroId": 14260,
    "rank": 97,
    "density": 2924
  },
  {
    "pop2023": 244378,
    "pop2022": 239143,
    "pop2020": 228673,
    "pop2010": 176320,
    "growth": 0.02189,
    "usps": "CA",
    "geoid": 669088,
    "ansicode": 2411819,
    "name": "Santa Clarita",
    "lsad": "2",
    "funcstat": 0,
    "aland": 183254000,
    "awater": 162849,
    "aland_sqmi": 70.755,
    "awater_sqmi": 0.063,
    "intptlat": 34.4141,
    "intptlong": -118.495,
    "slug": "santa-clarita-ca",
    "metroId": null,
    "rank": 98,
    "density": 3454
  },
  {
    "pop2023": 236565,
    "pop2022": 237045,
    "pop2020": 238005,
    "pop2010": 242803,
    "growth": -0.00202,
    "usps": "VA",
    "geoid": 5157000,
    "ansicode": 1498557,
    "name": "Norfolk",
    "lsad": "2",
    "funcstat": 0,
    "aland": 137981000,
    "awater": 111702000,
    "aland_sqmi": 53.275,
    "awater_sqmi": 43.128,
    "intptlat": 36.923,
    "intptlong": -76.2446,
    "slug": "norfolk-va",
    "metroId": 47260,
    "rank": 99,
    "density": 4440
  },
  {
    "pop2023": 235430,
    "pop2022": 233788,
    "pop2020": 230504,
    "pop2010": 214089,
    "growth": 0.00702,
    "usps": "CA",
    "geoid": 626000,
    "ansicode": 2410545,
    "name": "Fremont",
    "lsad": "2",
    "funcstat": 0,
    "aland": 200633000,
    "awater": 26291600,
    "aland_sqmi": 77.465,
    "awater_sqmi": 10.151,
    "intptlat": 37.501,
    "intptlong": -122.084,
    "slug": "fremont-ca",
    "metroId": null,
    "rank": 100,
    "density": 3039
  },
  {
    "pop2023": 235010,
    "pop2022": 233003,
    "pop2020": 228989,
    "pop2010": 208916,
    "growth": 0.00861,
    "usps": "WA",
    "geoid": 5367000,
    "ansicode": 2411956,
    "name": "Spokane",
    "lsad": "2",
    "funcstat": 0,
    "aland": 178086000,
    "awater": 1907180,
    "aland_sqmi": 68.759,
    "awater_sqmi": 0.736,
    "intptlat": 47.6669,
    "intptlong": -117.433,
    "slug": "spokane-wa",
    "metroId": 44060,
    "rank": 101,
    "density": 3418
  },
  {
    "pop2023": 233330,
    "pop2022": 231090,
    "pop2020": 226610,
    "pop2010": 204214,
    "growth": 0.00969,
    "usps": "VA",
    "geoid": 5167000,
    "ansicode": 1789073,
    "name": "Richmond",
    "lsad": "2",
    "funcstat": 0,
    "aland": 155200000,
    "awater": 6854940,
    "aland_sqmi": 59.923,
    "awater_sqmi": 2.647,
    "intptlat": 37.5314,
    "intptlong": -77.476,
    "slug": "richmond-va",
    "metroId": 40060,
    "rank": 102,
    "density": 3894
  },
  {
    "pop2023": 226864,
    "pop2022": 227066,
    "pop2020": 227470,
    "pop2010": 229493,
    "growth": -0.00089,
    "usps": "LA",
    "geoid": 2205000,
    "ansicode": 2403821,
    "name": "Baton Rouge",
    "lsad": "2",
    "funcstat": 0,
    "aland": 223903000,
    "awater": 5708640,
    "aland_sqmi": 86.449,
    "awater_sqmi": 2.204,
    "intptlat": 30.4422,
    "intptlong": -91.1309,
    "slug": "baton-rouge-la",
    "metroId": 12940,
    "rank": 103,
    "density": 2624
  },
  {
    "pop2023": 226757,
    "pop2022": 223037,
    "pop2020": 215597,
    "pop2010": 178395,
    "growth": 0.01668,
    "usps": "NV",
    "geoid": 3268585,
    "ansicode": 2408797,
    "name": "Spring Valley",
    "lsad": "5",
    "funcstat": 0,
    "aland": 86125900,
    "awater": 0,
    "aland_sqmi": 33.253,
    "awater_sqmi": 0,
    "intptlat": 36.0987,
    "intptlong": -115.262,
    "slug": "spring-valley-nv",
    "metroId": null,
    "rank": 104,
    "density": 6819
  },
  {
    "pop2023": 225755,
    "pop2022": 224537,
    "pop2020": 222101,
    "pop2010": 209924,
    "growth": 0.00542,
    "usps": "CA",
    "geoid": 665000,
    "ansicode": 2411777,
    "name": "San Bernardino",
    "lsad": "2",
    "funcstat": 0,
    "aland": 160860000,
    "awater": 875506,
    "aland_sqmi": 62.108,
    "awater_sqmi": 0.338,
    "intptlat": 34.1411,
    "intptlong": -117.295,
    "slug": "san-bernardino-ca",
    "metroId": 40140,
    "rank": 105,
    "density": 3635
  },
  {
    "pop2023": 225631,
    "pop2022": 223536,
    "pop2020": 219346,
    "pop2010": 198397,
    "growth": 0.00937,
    "usps": "WA",
    "geoid": 5370000,
    "ansicode": 2412025,
    "name": "Tacoma",
    "lsad": "2",
    "funcstat": 0,
    "aland": 128876000,
    "awater": 32804900,
    "aland_sqmi": 49.759,
    "awater_sqmi": 12.666,
    "intptlat": 47.2522,
    "intptlong": -122.46,
    "slug": "tacoma-wa",
    "metroId": 42660,
    "rank": 106,
    "density": 4534
  },
  {
    "pop2023": 225565,
    "pop2022": 217213,
    "pop2020": 200509,
    "pop2010": 116989,
    "growth": 0.03845,
    "usps": "TX",
    "geoid": 4827684,
    "ansicode": 2410549,
    "name": "Frisco",
    "lsad": "2",
    "funcstat": 0,
    "aland": 176443000,
    "awater": 1431230,
    "aland_sqmi": 68.125,
    "awater_sqmi": 0.553,
    "intptlat": 33.1554,
    "intptlong": -96.8226,
    "slug": "frisco-tx",
    "metroId": null,
    "rank": 107,
    "density": 3311
  },
  {
    "pop2023": 225476,
    "pop2022": 221986,
    "pop2020": 215006,
    "pop2010": 180105,
    "growth": 0.01572,
    "usps": "AL",
    "geoid": 137000,
    "ansicode": 2404746,
    "name": "Huntsville",
    "lsad": "2",
    "funcstat": 0,
    "aland": 555197000,
    "awater": 3528660,
    "aland_sqmi": 214.363,
    "awater_sqmi": 1.362,
    "intptlat": 34.7013,
    "intptlong": -86.6729,
    "slug": "huntsville-al",
    "metroId": 26620,
    "rank": 108,
    "density": 1052
  },
  {
    "pop2023": 223654,
    "pop2022": 221924,
    "pop2020": 218464,
    "pop2010": 201165,
    "growth": 0.0078,
    "usps": "CA",
    "geoid": 648354,
    "ansicode": 2411130,
    "name": "Modesto",
    "lsad": "2",
    "funcstat": 0,
    "aland": 111309000,
    "awater": 4740720,
    "aland_sqmi": 42.977,
    "awater_sqmi": 1.83,
    "intptlat": 37.6375,
    "intptlong": -121.003,
    "slug": "modesto-ca",
    "metroId": 33700,
    "rank": 109,
    "density": 5204
  },
  {
    "pop2023": 222641,
    "pop2022": 222797,
    "pop2020": 223109,
    "pop2010": 224669,
    "growth": -0.0007,
    "usps": "FL",
    "geoid": 1230000,
    "ansicode": 2404689,
    "name": "Hialeah",
    "lsad": "2",
    "funcstat": 0,
    "aland": 55895700,
    "awater": 3198200,
    "aland_sqmi": 21.581,
    "awater_sqmi": 1.235,
    "intptlat": 25.8699,
    "intptlong": -80.3029,
    "slug": "hialeah-fl",
    "metroId": null,
    "rank": 110,
    "density": 10317
  },
  {
    "pop2023": 217343,
    "pop2022": 216273,
    "pop2020": 214133,
    "pop2010": 203433,
    "growth": 0.00495,
    "usps": "IA",
    "geoid": 1921000,
    "ansicode": 2394522,
    "name": "Des Moines",
    "lsad": "2",
    "funcstat": 0,
    "aland": 228385000,
    "awater": 6420720,
    "aland_sqmi": 88.18,
    "awater_sqmi": 2.479,
    "intptlat": 41.5726,
    "intptlong": -93.6102,
    "slug": "des-moines-ia",
    "metroId": 19780,
    "rank": 111,
    "density": 2465
  },
  {
    "pop2023": 216926,
    "pop2022": 212901,
    "pop2020": 204851,
    "pop2010": 164603,
    "growth": 0.01891,
    "usps": "FL",
    "geoid": 1258715,
    "ansicode": 2404558,
    "name": "Port St. Lucie",
    "lsad": "2",
    "funcstat": 0,
    "aland": 308733000,
    "awater": 4194420,
    "aland_sqmi": 119.202,
    "awater_sqmi": 1.619,
    "intptlat": 27.2806,
    "intptlong": -80.3883,
    "slug": "port-st-lucie-fl",
    "metroId": 38940,
    "rank": 112,
    "density": 1820
  },
  {
    "pop2023": 216246,
    "pop2022": 214687,
    "pop2020": 211569,
    "pop2010": 195976,
    "growth": 0.00726,
    "usps": "NY",
    "geoid": 3684000,
    "ansicode": 979660,
    "name": "Yonkers",
    "lsad": "2",
    "funcstat": 0,
    "aland": 46651500,
    "awater": 5916220,
    "aland_sqmi": 18.012,
    "awater_sqmi": 2.284,
    "intptlat": 40.9459,
    "intptlong": -73.8674,
    "slug": "yonkers-ny",
    "metroId": null,
    "rank": 113,
    "density": 12006
  },
  {
    "pop2023": 214565,
    "pop2022": 208146,
    "pop2020": 195308,
    "pop2010": 131117,
    "growth": 0.03084,
    "usps": "TX",
    "geoid": 4845744,
    "ansicode": 2411064,
    "name": "McKinney",
    "lsad": "2",
    "funcstat": 0,
    "aland": 173373000,
    "awater": 1916550,
    "aland_sqmi": 66.94,
    "awater_sqmi": 0.74,
    "intptlat": 33.2011,
    "intptlong": -96.6642,
    "slug": "mckinney-tx",
    "metroId": null,
    "rank": 114,
    "density": 3205
  },
  {
    "pop2023": 214159,
    "pop2022": 211612,
    "pop2020": 206518,
    "pop2010": 181045,
    "growth": 0.01204,
    "usps": "MA",
    "geoid": 2582000,
    "ansicode": 619493,
    "name": "Worcester",
    "lsad": "2",
    "funcstat": 0,
    "aland": 96762100,
    "awater": 2811330,
    "aland_sqmi": 37.36,
    "awater_sqmi": 1.085,
    "intptlat": 42.2695,
    "intptlong": -71.8078,
    "slug": "worcester-ma",
    "metroId": null,
    "rank": 115,
    "density": 5732
  },
  {
    "pop2023": 213215,
    "pop2022": 211688,
    "pop2020": 208634,
    "pop2010": 193365,
    "growth": 0.00721,
    "usps": "CA",
    "geoid": 649270,
    "ansicode": 2411159,
    "name": "Moreno Valley",
    "lsad": "2",
    "funcstat": 0,
    "aland": 132755000,
    "awater": 549563,
    "aland_sqmi": 51.257,
    "awater_sqmi": 0.212,
    "intptlat": 33.9233,
    "intptlong": -117.206,
    "slug": "moreno-valley-ca",
    "metroId": null,
    "rank": 116,
    "density": 4160
  },
  {
    "pop2023": 212089,
    "pop2022": 210857,
    "pop2020": 208393,
    "pop2010": 196069,
    "growth": 0.00584,
    "usps": "CA",
    "geoid": 624680,
    "ansicode": 2410517,
    "name": "Fontana",
    "lsad": "2",
    "funcstat": 0,
    "aland": 111555000,
    "awater": 0,
    "aland_sqmi": 43.072,
    "awater_sqmi": 0,
    "intptlat": 34.109,
    "intptlong": -117.463,
    "slug": "fontana-ca",
    "metroId": null,
    "rank": 117,
    "density": 4924
  },
  {
    "pop2023": 212034,
    "pop2022": 210330,
    "pop2020": 206922,
    "pop2010": 189885,
    "growth": 0.0081,
    "usps": "GA",
    "geoid": 1319000,
    "ansicode": 2404111,
    "name": "Columbus",
    "lsad": "2",
    "funcstat": 0,
    "aland": 560679000,
    "awater": 11737100,
    "aland_sqmi": 216.479,
    "awater_sqmi": 4.532,
    "intptlat": 32.5102,
    "intptlong": -84.8749,
    "slug": "columbus-ga",
    "metroId": 17980,
    "rank": 118,
    "density": 979
  },
  {
    "pop2023": 211556,
    "pop2022": 211480,
    "pop2020": 211328,
    "pop2010": 210565,
    "growth": 0.00036,
    "usps": "NY",
    "geoid": 3663000,
    "ansicode": 979426,
    "name": "Rochester",
    "lsad": "2",
    "funcstat": 0,
    "aland": 92634700,
    "awater": 3640300,
    "aland_sqmi": 35.766,
    "awater_sqmi": 1.406,
    "intptlat": 43.1699,
    "intptlong": -77.6169,
    "slug": "rochester-ny",
    "metroId": 40380,
    "rank": 119,
    "density": 5915
  },
  {
    "pop2023": 210883,
    "pop2022": 210089,
    "pop2020": 208501,
    "pop2010": 200564,
    "growth": 0.00378,
    "usps": "NC",
    "geoid": 3722920,
    "ansicode": 2403604,
    "name": "Fayetteville",
    "lsad": "2",
    "funcstat": 0,
    "aland": 382923000,
    "awater": 4738400,
    "aland_sqmi": 147.847,
    "awater_sqmi": 1.83,
    "intptlat": 35.0828,
    "intptlong": -78.9735,
    "slug": "fayetteville-nc",
    "metroId": 22180,
    "rank": 120,
    "density": 1426
  },
  {
    "pop2023": 210493,
    "pop2022": 208868,
    "pop2020": 205618,
    "pop2010": 189372,
    "growth": 0.00778,
    "usps": "NV",
    "geoid": 3271400,
    "ansicode": 2410035,
    "name": "Sunrise Manor",
    "lsad": "5",
    "funcstat": 0,
    "aland": 86444700,
    "awater": 0,
    "aland_sqmi": 33.376,
    "awater_sqmi": 0,
    "intptlat": 36.1785,
    "intptlong": -115.049,
    "slug": "sunrise-manor-nv",
    "metroId": null,
    "rank": 121,
    "density": 6307
  },
  {
    "pop2023": 205929,
    "pop2022": 201958,
    "pop2020": 194016,
    "pop2010": 154305,
    "growth": 0.01966,
    "usps": "FL",
    "geoid": 1210275,
    "ansicode": 2403990,
    "name": "Cape Coral",
    "lsad": "2",
    "funcstat": 0,
    "aland": 274405000,
    "awater": 34816600,
    "aland_sqmi": 105.948,
    "awater_sqmi": 13.443,
    "intptlat": 26.6432,
    "intptlong": -81.9974,
    "slug": "cape-coral-fl",
    "metroId": 15980,
    "rank": 122,
    "density": 1944
  },
  {
    "pop2023": 205312,
    "pop2022": 204405,
    "pop2020": 202591,
    "pop2010": 193524,
    "growth": 0.00444,
    "usps": "AR",
    "geoid": 541000,
    "ansicode": 2404939,
    "name": "Little Rock",
    "lsad": "2",
    "funcstat": 0,
    "aland": 310777000,
    "awater": 7665230,
    "aland_sqmi": 119.992,
    "awater_sqmi": 2.96,
    "intptlat": 34.724,
    "intptlong": -92.3576,
    "slug": "little-rock-ar",
    "metroId": 30780,
    "rank": 123,
    "density": 1711
  },
  {
    "pop2023": 204399,
    "pop2022": 202012,
    "pop2020": 197238,
    "pop2010": 173372,
    "growth": 0.01182,
    "usps": "KS",
    "geoid": 2053775,
    "ansicode": 485639,
    "name": "Overland Park",
    "lsad": "2",
    "funcstat": 0,
    "aland": 194716000,
    "awater": 1194800,
    "aland_sqmi": 75.18,
    "awater_sqmi": 0.461,
    "intptlat": 38.889,
    "intptlong": -94.6906,
    "slug": "overland-park-ks",
    "metroId": null,
    "rank": 124,
    "density": 2719
  },
  {
    "pop2023": 204106,
    "pop2022": 200243,
    "pop2020": 192517,
    "pop2010": 153888,
    "growth": 0.01929,
    "usps": "SD",
    "geoid": 4659020,
    "ansicode": 1267566,
    "name": "Sioux Falls",
    "lsad": "2",
    "funcstat": 0,
    "aland": 202612000,
    "awater": 1363810,
    "aland_sqmi": 78.229,
    "awater_sqmi": 0.527,
    "intptlat": 43.5395,
    "intptlong": -96.732,
    "slug": "sioux-falls-sd",
    "metroId": 43620,
    "rank": 125,
    "density": 2609
  },
  {
    "pop2023": 203953,
    "pop2022": 203329,
    "pop2020": 202081,
    "pop2010": 195844,
    "growth": 0.00307,
    "usps": "GA",
    "geoid": 1304204,
    "ansicode": 2405078,
    "name": "Augusta",
    "lsad": "0",
    "funcstat": 0,
    "aland": 782887000,
    "awater": 10820500,
    "aland_sqmi": 302.274,
    "awater_sqmi": 4.178,
    "intptlat": 33.3655,
    "intptlong": -82.0734,
    "slug": "augusta-ga",
    "metroId": 12260,
    "rank": 126,
    "density": 675
  },
  {
    "pop2023": 203707,
    "pop2022": 202379,
    "pop2020": 199723,
    "pop2010": 186440,
    "growth": 0.00656,
    "usps": "UT",
    "geoid": 4967000,
    "ansicode": 2411771,
    "name": "Salt Lake City",
    "lsad": "2",
    "funcstat": 0,
    "aland": 286707000,
    "awater": 1216720,
    "aland_sqmi": 110.698,
    "awater_sqmi": 0.47,
    "intptlat": 40.7785,
    "intptlong": -111.93,
    "slug": "salt-lake-city-ut",
    "metroId": 41620,
    "rank": 127,
    "density": 1840
  },
  {
    "pop2023": 203311,
    "pop2022": 202895,
    "pop2020": 202063,
    "pop2010": 197899,
    "growth": 0.00205,
    "usps": "CA",
    "geoid": 654652,
    "ansicode": 2411347,
    "name": "Oxnard",
    "lsad": "2",
    "funcstat": 0,
    "aland": 68706200,
    "awater": 32114700,
    "aland_sqmi": 26.528,
    "awater_sqmi": 12.4,
    "intptlat": 34.1994,
    "intptlong": -119.208,
    "slug": "oxnard-ca",
    "metroId": 37100,
    "rank": 128,
    "density": 7664
  },
  {
    "pop2023": 203303,
    "pop2022": 202333,
    "pop2020": 200393,
    "pop2010": 190695,
    "growth": 0.00479,
    "usps": "TX",
    "geoid": 4803000,
    "ansicode": 2409694,
    "name": "Amarillo",
    "lsad": "2",
    "funcstat": 0,
    "aland": 263516000,
    "awater": 4049640,
    "aland_sqmi": 101.744,
    "awater_sqmi": 1.564,
    "intptlat": 35.1989,
    "intptlong": -101.832,
    "slug": "amarillo-tx",
    "metroId": 11100,
    "rank": 129,
    "density": 1998
  },
  {
    "pop2023": 202310,
    "pop2022": 200240,
    "pop2020": 196100,
    "pop2010": 175396,
    "growth": 0.01034,
    "usps": "TX",
    "geoid": 4830464,
    "ansicode": 2410632,
    "name": "Grand Prairie",
    "lsad": "2",
    "funcstat": 0,
    "aland": 187139000,
    "awater": 23043300,
    "aland_sqmi": 72.255,
    "awater_sqmi": 8.897,
    "intptlat": 32.6861,
    "intptlong": -97.0208,
    "slug": "grand-prairie-tx",
    "metroId": null,
    "rank": 130,
    "density": 2800
  },
  {
    "pop2023": 202181,
    "pop2022": 201093,
    "pop2020": 198917,
    "pop2010": 188040,
    "growth": 0.00541,
    "usps": "MI",
    "geoid": 2634000,
    "ansicode": 1626373,
    "name": "Grand Rapids",
    "lsad": "2",
    "funcstat": 0,
    "aland": 115919000,
    "awater": 2268060,
    "aland_sqmi": 44.756,
    "awater_sqmi": 0.876,
    "intptlat": 42.9612,
    "intptlong": -85.6556,
    "slug": "grand-rapids-mi",
    "metroId": 24340,
    "rank": 131,
    "density": 4517
  },
  {
    "pop2023": 202061,
    "pop2022": 198369,
    "pop2020": 190985,
    "pop2010": 154065,
    "growth": 0.01861,
    "usps": "AZ",
    "geoid": 454050,
    "ansicode": 2411401,
    "name": "Peoria",
    "lsad": "2",
    "funcstat": 0,
    "aland": 455811000,
    "awater": 8208020,
    "aland_sqmi": 175.989,
    "awater_sqmi": 3.169,
    "intptlat": 33.7865,
    "intptlong": -112.308,
    "slug": "peoria-az",
    "metroId": null,
    "rank": 132,
    "density": 1148
  },
  {
    "pop2023": 201327,
    "pop2022": 200455,
    "pop2020": 198711,
    "pop2010": 189992,
    "growth": 0.00435,
    "usps": "CA",
    "geoid": 636000,
    "ansicode": 2410811,
    "name": "Huntington Beach",
    "lsad": "2",
    "funcstat": 0,
    "aland": 69936400,
    "awater": 3455840,
    "aland_sqmi": 27.003,
    "awater_sqmi": 1.334,
    "intptlat": 33.698,
    "intptlong": -118.004,
    "slug": "huntington-beach-ca",
    "metroId": null,
    "rank": 133,
    "density": 7456
  },
  {
    "pop2023": 200606,
    "pop2022": 199127,
    "pop2020": 196169,
    "pop2010": 181376,
    "growth": 0.00743,
    "usps": "FL",
    "geoid": 1270600,
    "ansicode": 2405563,
    "name": "Tallahassee",
    "lsad": "2",
    "funcstat": 0,
    "aland": 260226000,
    "awater": 8345630,
    "aland_sqmi": 100.474,
    "awater_sqmi": 3.222,
    "intptlat": 30.4551,
    "intptlong": -84.2534,
    "slug": "tallahassee-fl",
    "metroId": 45220,
    "rank": 134,
    "density": 1997
  },
  {
    "pop2023": 199651,
    "pop2022": 196739,
    "pop2020": 190915,
    "pop2010": 161791,
    "growth": 0.0148,
    "usps": "WA",
    "geoid": 5374060,
    "ansicode": 2412146,
    "name": "Vancouver",
    "lsad": "2",
    "funcstat": 0,
    "aland": 126246000,
    "awater": 9593980,
    "aland_sqmi": 48.744,
    "awater_sqmi": 3.704,
    "intptlat": 45.6372,
    "intptlong": -122.597,
    "slug": "vancouver-wa",
    "metroId": 38900,
    "rank": 135,
    "density": 4096
  },
  {
    "pop2023": 199055,
    "pop2022": 199571,
    "pop2020": 200603,
    "pop2010": 205764,
    "growth": -0.00259,
    "usps": "AL",
    "geoid": 151000,
    "ansicode": 2404289,
    "name": "Montgomery",
    "lsad": "2",
    "funcstat": 0,
    "aland": 414093000,
    "awater": 5965790,
    "aland_sqmi": 159.882,
    "awater_sqmi": 2.303,
    "intptlat": 32.3472,
    "intptlong": -86.2661,
    "slug": "montgomery-al",
    "metroId": 33860,
    "rank": 136,
    "density": 1245
  },
  {
    "pop2023": 197989,
    "pop2022": 197507,
    "pop2020": 196543,
    "pop2010": 191719,
    "growth": 0.00244,
    "usps": "CA",
    "geoid": 630000,
    "ansicode": 2410597,
    "name": "Glendale",
    "lsad": "2",
    "funcstat": 0,
    "aland": 78919000,
    "awater": 330545,
    "aland_sqmi": 30.471,
    "awater_sqmi": 0.128,
    "intptlat": 34.1814,
    "intptlong": -118.246,
    "slug": "glendale-ca",
    "metroId": null,
    "rank": 137,
    "density": 6498
  },
  {
    "pop2023": 197283,
    "pop2022": 198433,
    "pop2020": 200733,
    "pop2010": 212237,
    "growth": -0.0058,
    "usps": "AL",
    "geoid": 107000,
    "ansicode": 2403868,
    "name": "Birmingham",
    "lsad": "2",
    "funcstat": 0,
    "aland": 378334000,
    "awater": 6593180,
    "aland_sqmi": 146.076,
    "awater_sqmi": 2.546,
    "intptlat": 33.5274,
    "intptlong": -86.799,
    "slug": "birmingham-al",
    "metroId": 13820,
    "rank": 138,
    "density": 1351
  },
  {
    "pop2023": 194801,
    "pop2022": 193512,
    "pop2020": 190934,
    "pop2010": 178042,
    "growth": 0.00666,
    "usps": "RI",
    "geoid": 4459000,
    "ansicode": 1220076,
    "name": "Providence",
    "lsad": "2",
    "funcstat": 0,
    "aland": 47670300,
    "awater": 5654660,
    "aland_sqmi": 18.406,
    "awater_sqmi": 2.183,
    "intptlat": 41.8231,
    "intptlong": -71.4188,
    "slug": "providence-ri",
    "metroId": 39300,
    "rank": 139,
    "density": 10584
  },
  {
    "pop2023": 194301,
    "pop2022": 193114,
    "pop2020": 190740,
    "pop2010": 178874,
    "growth": 0.00615,
    "usps": "TN",
    "geoid": 4740000,
    "ansicode": 2404842,
    "name": "Knoxville",
    "lsad": "2",
    "funcstat": 0,
    "aland": 255664000,
    "awater": 14322100,
    "aland_sqmi": 98.713,
    "awater_sqmi": 5.53,
    "intptlat": 35.9707,
    "intptlong": -83.9493,
    "slug": "knoxville-tn",
    "metroId": 28940,
    "rank": 140,
    "density": 1968
  },
  {
    "pop2023": 190254,
    "pop2022": 189082,
    "pop2020": 186738,
    "pop2010": 175023,
    "growth": 0.0062,
    "usps": "TX",
    "geoid": 4810768,
    "ansicode": 2409924,
    "name": "Brownsville",
    "lsad": "2",
    "funcstat": 0,
    "aland": 342712000,
    "awater": 35635800,
    "aland_sqmi": 132.322,
    "awater_sqmi": 13.759,
    "intptlat": 25.9957,
    "intptlong": -97.4509,
    "slug": "brownsville-tx",
    "metroId": 15180,
    "rank": 141,
    "density": 1438
  },
  {
    "pop2023": 187932,
    "pop2022": 186208,
    "pop2020": 182760,
    "pop2010": 165521,
    "growth": 0.00926,
    "usps": "FL",
    "geoid": 1224000,
    "ansicode": 2403640,
    "name": "Fort Lauderdale",
    "lsad": "2",
    "funcstat": 0,
    "aland": 89577600,
    "awater": 4435590,
    "aland_sqmi": 34.586,
    "awater_sqmi": 1.713,
    "intptlat": 26.1412,
    "intptlong": -80.1467,
    "slug": "fort-lauderdale-fl",
    "metroId": 33100,
    "rank": 142,
    "density": 5434
  },
  {
    "pop2023": 187906,
    "pop2022": 187353,
    "pop2020": 186247,
    "pop2010": 180719,
    "growth": 0.00295,
    "usps": "VA",
    "geoid": 5156000,
    "ansicode": 1498555,
    "name": "Newport News",
    "lsad": "2",
    "funcstat": 0,
    "aland": 178689000,
    "awater": 131135000,
    "aland_sqmi": 68.992,
    "awater_sqmi": 50.632,
    "intptlat": 37.0761,
    "intptlong": -76.522,
    "slug": "newport-news-va",
    "metroId": 47260,
    "rank": 143,
    "density": 2724
  },
  {
    "pop2023": 187877,
    "pop2022": 188741,
    "pop2020": 190469,
    "pop2010": 199110,
    "growth": -0.00458,
    "usps": "OH",
    "geoid": 3901000,
    "ansicode": 1086993,
    "name": "Akron",
    "lsad": "2",
    "funcstat": 0,
    "aland": 160405000,
    "awater": 884027,
    "aland_sqmi": 61.933,
    "awater_sqmi": 0.341,
    "intptlat": 41.0805,
    "intptlong": -81.5214,
    "slug": "akron-oh",
    "metroId": 10420,
    "rank": 144,
    "density": 3034
  },
  {
    "pop2023": 186568,
    "pop2022": 182619,
    "pop2020": 174721,
    "pop2010": 135234,
    "growth": 0.02162,
    "usps": "NC",
    "geoid": 3710740,
    "ansicode": 2406229,
    "name": "Cary",
    "lsad": "4",
    "funcstat": 0,
    "aland": 152098000,
    "awater": 2807500,
    "aland_sqmi": 58.725,
    "awater_sqmi": 1.084,
    "intptlat": 35.7814,
    "intptlong": -78.819,
    "slug": "cary-nc",
    "metroId": null,
    "rank": 145,
    "density": 3177
  },
  {
    "pop2023": 186248,
    "pop2022": 184361,
    "pop2020": 180587,
    "pop2010": 161719,
    "growth": 0.01024,
    "usps": "AZ",
    "geoid": 473000,
    "ansicode": 2412045,
    "name": "Tempe",
    "lsad": "2",
    "funcstat": 0,
    "aland": 103541000,
    "awater": 643414,
    "aland_sqmi": 39.977,
    "awater_sqmi": 0.248,
    "intptlat": 33.3884,
    "intptlong": -111.932,
    "slug": "tempe-az",
    "metroId": null,
    "rank": 146,
    "density": 4659
  },
  {
    "pop2023": 185125,
    "pop2022": 183783,
    "pop2020": 181099,
    "pop2010": 167674,
    "growth": 0.0073,
    "usps": "TN",
    "geoid": 4714000,
    "ansicode": 2404035,
    "name": "Chattanooga",
    "lsad": "2",
    "funcstat": 0,
    "aland": 370273000,
    "awater": 19989100,
    "aland_sqmi": 142.963,
    "awater_sqmi": 7.718,
    "intptlat": 35.066,
    "intptlong": -85.2484,
    "slug": "chattanooga-tn",
    "metroId": 16860,
    "rank": 147,
    "density": 1295
  },
  {
    "pop2023": 184620,
    "pop2022": 185427,
    "pop2020": 187041,
    "pop2010": 195111,
    "growth": -0.00435,
    "usps": "AL",
    "geoid": 150000,
    "ansicode": 2404278,
    "name": "Mobile",
    "lsad": "2",
    "funcstat": 0,
    "aland": 361212000,
    "awater": 105131000,
    "aland_sqmi": 139.465,
    "awater_sqmi": 40.591,
    "intptlat": 30.6684,
    "intptlong": -88.1002,
    "slug": "mobile-al",
    "metroId": 33660,
    "rank": 148,
    "density": 1324
  },
  {
    "pop2023": 184077,
    "pop2022": 185249,
    "pop2020": 187593,
    "pop2010": 199311,
    "growth": -0.00633,
    "usps": "LA",
    "geoid": 2270000,
    "ansicode": 2405463,
    "name": "Shreveport",
    "lsad": "2",
    "funcstat": 0,
    "aland": 278064000,
    "awater": 39380900,
    "aland_sqmi": 107.361,
    "awater_sqmi": 15.205,
    "intptlat": 32.4669,
    "intptlong": -93.7922,
    "slug": "shreveport-la",
    "metroId": 43340,
    "rank": 149,
    "density": 1715
  },
  {
    "pop2023": 183057,
    "pop2022": 180746,
    "pop2020": 176124,
    "pop2010": 153015,
    "growth": 0.01279,
    "usps": "CA",
    "geoid": 622020,
    "ansicode": 2410425,
    "name": "Elk Grove",
    "lsad": "2",
    "funcstat": 0,
    "aland": 108864000,
    "awater": 429692,
    "aland_sqmi": 42.033,
    "awater_sqmi": 0.166,
    "intptlat": 38.4146,
    "intptlong": -121.385,
    "slug": "elk-grove-ca",
    "metroId": null,
    "rank": 150,
    "density": 4355
  },
  {
    "pop2023": 182795,
    "pop2022": 180748,
    "pop2020": 176654,
    "pop2010": 156185,
    "growth": 0.01133,
    "usps": "OR",
    "geoid": 4123850,
    "ansicode": 2410460,
    "name": "Eugene",
    "lsad": "2",
    "funcstat": 0,
    "aland": 114316000,
    "awater": 178992,
    "aland_sqmi": 44.138,
    "awater_sqmi": 0.069,
    "intptlat": 44.0551,
    "intptlong": -123.117,
    "slug": "eugene-or",
    "metroId": 21660,
    "rank": 151,
    "density": 4141
  },
  {
    "pop2023": 181805,
    "pop2022": 179715,
    "pop2020": 175535,
    "pop2010": 154637,
    "growth": 0.01163,
    "usps": "OR",
    "geoid": 4164900,
    "ansicode": 2411764,
    "name": "Salem",
    "lsad": "2",
    "funcstat": 0,
    "aland": 126110000,
    "awater": 1418530,
    "aland_sqmi": 48.691,
    "awater_sqmi": 0.548,
    "intptlat": 44.9239,
    "intptlong": -123.023,
    "slug": "salem-or",
    "metroId": 41420,
    "rank": 152,
    "density": 3734
  },
  {
    "pop2023": 181659,
    "pop2022": 184852,
    "pop2020": 191238,
    "pop2010": 223167,
    "growth": -0.01727,
    "usps": "NV",
    "geoid": 3254600,
    "ansicode": 2409023,
    "name": "Paradise",
    "lsad": "5",
    "funcstat": 0,
    "aland": 121035000,
    "awater": 0,
    "aland_sqmi": 46.732,
    "awater_sqmi": 0,
    "intptlat": 36.0807,
    "intptlong": -115.137,
    "slug": "paradise-nv",
    "metroId": 29820,
    "rank": 153,
    "density": 3887
  },
  {
    "pop2023": 181220,
    "pop2022": 180189,
    "pop2020": 178127,
    "pop2010": 167815,
    "growth": 0.00572,
    "usps": "CA",
    "geoid": 670098,
    "ansicode": 2411827,
    "name": "Santa Rosa",
    "lsad": "2",
    "funcstat": 0,
    "aland": 110124000,
    "awater": 451570,
    "aland_sqmi": 42.519,
    "awater_sqmi": 0.174,
    "intptlat": 38.4458,
    "intptlong": -122.706,
    "slug": "santa-rosa-ca",
    "metroId": 42220,
    "rank": 154,
    "density": 4262
  },
  {
    "pop2023": 178667,
    "pop2022": 177533,
    "pop2020": 175265,
    "pop2010": 163924,
    "growth": 0.00639,
    "usps": "CA",
    "geoid": 653896,
    "ansicode": 2411323,
    "name": "Ontario",
    "lsad": "2",
    "funcstat": 0,
    "aland": 129403000,
    "awater": 75071,
    "aland_sqmi": 49.963,
    "awater_sqmi": 0.029,
    "intptlat": 34.0376,
    "intptlong": -117.604,
    "slug": "ontario-ca",
    "metroId": 40140,
    "rank": 155,
    "density": 3576
  },
  {
    "pop2023": 178580,
    "pop2022": 176892,
    "pop2020": 173516,
    "pop2010": 156633,
    "growth": 0.00954,
    "usps": "CA",
    "geoid": 640130,
    "ansicode": 2411620,
    "name": "Lancaster",
    "lsad": "2",
    "funcstat": 0,
    "aland": 244187000,
    "awater": 681671,
    "aland_sqmi": 94.281,
    "awater_sqmi": 0.263,
    "intptlat": 34.6936,
    "intptlong": -118.175,
    "slug": "lancaster-ca",
    "metroId": null,
    "rank": 156,
    "density": 1894
  },
  {
    "pop2023": 177556,
    "pop2022": 174974,
    "pop2020": 169810,
    "pop2010": 143986,
    "growth": 0.01476,
    "usps": "CO",
    "geoid": 827425,
    "ansicode": 2410526,
    "name": "Fort Collins",
    "lsad": "2",
    "funcstat": 0,
    "aland": 148102000,
    "awater": 3282220,
    "aland_sqmi": 57.182,
    "awater_sqmi": 1.267,
    "intptlat": 40.5482,
    "intptlong": -105.065,
    "slug": "fort-collins-co",
    "metroId": 22660,
    "rank": 157,
    "density": 3105
  },
  {
    "pop2023": 177207,
    "pop2022": 176289,
    "pop2020": 174453,
    "pop2010": 165269,
    "growth": 0.00521,
    "usps": "CA",
    "geoid": 659451,
    "ansicode": 2411514,
    "name": "Rancho Cucamonga",
    "lsad": "2",
    "funcstat": 0,
    "aland": 103902000,
    "awater": 24723,
    "aland_sqmi": 40.117,
    "awater_sqmi": 0.01,
    "intptlat": 34.1233,
    "intptlong": -117.564,
    "slug": "rancho-cucamonga-ca",
    "metroId": null,
    "rank": 158,
    "density": 4417
  },
  {
    "pop2023": 176859,
    "pop2022": 173480,
    "pop2020": 166722,
    "pop2010": 132929,
    "growth": 0.01948,
    "usps": "TN",
    "geoid": 4715160,
    "ansicode": 2404061,
    "name": "Clarksville",
    "lsad": "2",
    "funcstat": 0,
    "aland": 255882000,
    "awater": 1764730,
    "aland_sqmi": 98.796,
    "awater_sqmi": 0.681,
    "intptlat": 36.5664,
    "intptlong": -87.3452,
    "slug": "clarksville-tn",
    "metroId": 17300,
    "rank": 159,
    "density": 1790
  },
  {
    "pop2023": 176162,
    "pop2022": 175464,
    "pop2020": 174068,
    "pop2010": 167086,
    "growth": 0.00398,
    "usps": "CA",
    "geoid": 653322,
    "ansicode": 2411301,
    "name": "Oceanside",
    "lsad": "2",
    "funcstat": 0,
    "aland": 106851000,
    "awater": 2334140,
    "aland_sqmi": 41.256,
    "awater_sqmi": 0.901,
    "intptlat": 33.2246,
    "intptlong": -117.306,
    "slug": "oceanside-ca",
    "metroId": null,
    "rank": 160,
    "density": 4270
  },
  {
    "pop2023": 176107,
    "pop2022": 174464,
    "pop2020": 171178,
    "pop2010": 154750,
    "growth": 0.00942,
    "usps": "FL",
    "geoid": 1255775,
    "ansicode": 2404502,
    "name": "Pembroke Pines",
    "lsad": "2",
    "funcstat": 0,
    "aland": 84623300,
    "awater": 5412080,
    "aland_sqmi": 32.673,
    "awater_sqmi": 2.09,
    "intptlat": 26.0147,
    "intptlong": -80.3402,
    "slug": "pembroke-pines-fl",
    "metroId": null,
    "rank": 161,
    "density": 5390
  },
  {
    "pop2023": 175334,
    "pop2022": 177070,
    "pop2020": 180542,
    "pop2010": 197899,
    "growth": -0.0098,
    "usps": "IL",
    "geoid": 1703012,
    "ansicode": 2394031,
    "name": "Aurora",
    "lsad": "2",
    "funcstat": 0,
    "aland": 116572000,
    "awater": 2420400,
    "aland_sqmi": 45.009,
    "awater_sqmi": 0.935,
    "intptlat": 41.7635,
    "intptlong": -88.2901,
    "slug": "aurora-il",
    "metroId": null,
    "rank": 162,
    "density": 3896
  },
  {
    "pop2023": 174460,
    "pop2022": 172790,
    "pop2020": 169450,
    "pop2010": 152750,
    "growth": 0.00966,
    "usps": "CA",
    "geoid": 655156,
    "ansicode": 2411359,
    "name": "Palmdale",
    "lsad": "2",
    "funcstat": 0,
    "aland": 274736000,
    "awater": 633934,
    "aland_sqmi": 106.076,
    "awater_sqmi": 0.245,
    "intptlat": 34.591,
    "intptlong": -118.105,
    "slug": "palmdale-ca",
    "metroId": null,
    "rank": 163,
    "density": 1645
  },
  {
    "pop2023": 172270,
    "pop2022": 172163,
    "pop2020": 171949,
    "pop2010": 170883,
    "growth": 0.00062,
    "usps": "CA",
    "geoid": 629000,
    "ansicode": 2410568,
    "name": "Garden Grove",
    "lsad": "2",
    "funcstat": 0,
    "aland": 46509200,
    "awater": 45894,
    "aland_sqmi": 17.957,
    "awater_sqmi": 0.018,
    "intptlat": 33.7788,
    "intptlong": -117.96,
    "slug": "garden-grove-ca",
    "metroId": null,
    "rank": 164,
    "density": 9593
  },
  {
    "pop2023": 172080,
    "pop2022": 171112,
    "pop2020": 169176,
    "pop2010": 159498,
    "growth": 0.00566,
    "usps": "MO",
    "geoid": 2970000,
    "ansicode": 2395942,
    "name": "Springfield",
    "lsad": "2",
    "funcstat": 0,
    "aland": 213394000,
    "awater": 1519590,
    "aland_sqmi": 82.392,
    "awater_sqmi": 0.587,
    "intptlat": 37.1942,
    "intptlong": -93.2913,
    "slug": "springfield-mo",
    "metroId": 44180,
    "rank": 165,
    "density": 2089
  },
  {
    "pop2023": 168585,
    "pop2022": 166708,
    "pop2020": 162954,
    "pop2010": 144186,
    "growth": 0.01126,
    "usps": "CA",
    "geoid": 633000,
    "ansicode": 2410724,
    "name": "Hayward",
    "lsad": "2",
    "funcstat": 0,
    "aland": 117941000,
    "awater": 47363900,
    "aland_sqmi": 45.537,
    "awater_sqmi": 18.287,
    "intptlat": 37.6287,
    "intptlong": -122.102,
    "slug": "hayward-ca",
    "metroId": 41860,
    "rank": 166,
    "density": 3702
  },
  {
    "pop2023": 167472,
    "pop2022": 166162,
    "pop2020": 163542,
    "pop2010": 150441,
    "growth": 0.00788,
    "usps": "CA",
    "geoid": 664224,
    "ansicode": 2411768,
    "name": "Salinas",
    "lsad": "2",
    "funcstat": 0,
    "aland": 60679300,
    "awater": 83122,
    "aland_sqmi": 23.428,
    "awater_sqmi": 0.032,
    "intptlat": 36.6902,
    "intptlong": -121.634,
    "slug": "salinas-ca",
    "metroId": 41500,
    "rank": 167,
    "density": 7148
  },
  {
    "pop2023": 165972,
    "pop2022": 161571,
    "pop2020": 152769,
    "pop2010": 108755,
    "growth": 0.02724,
    "usps": "TN",
    "geoid": 4751560,
    "ansicode": 2404342,
    "name": "Murfreesboro",
    "lsad": "2",
    "funcstat": 0,
    "aland": 159826000,
    "awater": 353385,
    "aland_sqmi": 61.709,
    "awater_sqmi": 0.136,
    "intptlat": 35.8539,
    "intptlong": -86.4212,
    "slug": "murfreesboro-tn",
    "metroId": 34980,
    "rank": 168,
    "density": 2690
  },
  {
    "pop2023": 165317,
    "pop2022": 163367,
    "pop2020": 159467,
    "pop2010": 139966,
    "growth": 0.01194,
    "usps": "VA",
    "geoid": 5101000,
    "ansicode": 1498415,
    "name": "Alexandria",
    "lsad": "2",
    "funcstat": 0,
    "aland": 38679400,
    "awater": 1070220,
    "aland_sqmi": 14.934,
    "awater_sqmi": 0.413,
    "intptlat": 38.8193,
    "intptlong": -77.0837,
    "slug": "alexandria-va",
    "metroId": 47900,
    "rank": 169,
    "density": 11070
  },
  {
    "pop2023": 163791,
    "pop2022": 162438,
    "pop2020": 159732,
    "pop2010": 146199,
    "growth": 0.00833,
    "usps": "NJ",
    "geoid": 3457000,
    "ansicode": 885343,
    "name": "Paterson",
    "lsad": "2",
    "funcstat": 0,
    "aland": 21790100,
    "awater": 762699,
    "aland_sqmi": 8.413,
    "awater_sqmi": 0.294,
    "intptlat": 40.9148,
    "intptlong": -74.1628,
    "slug": "paterson-nj",
    "metroId": null,
    "rank": 170,
    "density": 19469
  },
  {
    "pop2023": 160701,
    "pop2022": 157752,
    "pop2020": 151854,
    "pop2010": 122363,
    "growth": 0.01869,
    "usps": "WA",
    "geoid": 5305210,
    "ansicode": 2409821,
    "name": "Bellevue",
    "lsad": "2",
    "funcstat": 0,
    "aland": 86663800,
    "awater": 10472200,
    "aland_sqmi": 33.461,
    "awater_sqmi": 4.043,
    "intptlat": 47.5978,
    "intptlong": -122.156,
    "slug": "bellevue-wa",
    "metroId": 42660,
    "rank": 171,
    "density": 4803
  },
  {
    "pop2023": 160646,
    "pop2022": 158129,
    "pop2020": 153095,
    "pop2010": 127921,
    "growth": 0.01592,
    "usps": "TX",
    "geoid": 4839148,
    "ansicode": 2411542,
    "name": "Killeen",
    "lsad": "2",
    "funcstat": 0,
    "aland": 141270000,
    "awater": 1690050,
    "aland_sqmi": 54.545,
    "awater_sqmi": 0.653,
    "intptlat": 31.0753,
    "intptlong": -97.7316,
    "slug": "killeen-tx",
    "metroId": 28660,
    "rank": 172,
    "density": 2945
  },
  {
    "pop2023": 160521,
    "pop2022": 158949,
    "pop2020": 155805,
    "pop2010": 140081,
    "growth": 0.00989,
    "usps": "CA",
    "geoid": 677000,
    "ansicode": 2412009,
    "name": "Sunnyvale",
    "lsad": "2",
    "funcstat": 0,
    "aland": 57057400,
    "awater": 1817650,
    "aland_sqmi": 22.03,
    "awater_sqmi": 0.702,
    "intptlat": 37.3858,
    "intptlong": -122.026,
    "slug": "sunnyvale-ca",
    "metroId": 41940,
    "rank": 173,
    "density": 7286
  },
  {
    "pop2023": 159884,
    "pop2022": 158584,
    "pop2020": 155984,
    "pop2010": 142980,
    "growth": 0.0082,
    "usps": "CO",
    "geoid": 843000,
    "ansicode": 2411614,
    "name": "Lakewood",
    "lsad": "2",
    "funcstat": 0,
    "aland": 111490000,
    "awater": 3039240,
    "aland_sqmi": 43.047,
    "awater_sqmi": 1.173,
    "intptlat": 39.6989,
    "intptlong": -105.118,
    "slug": "lakewood-co",
    "metroId": 19740,
    "rank": 174,
    "density": 3714
  },
  {
    "pop2023": 159853,
    "pop2022": 158771,
    "pop2020": 156607,
    "pop2010": 145786,
    "growth": 0.00681,
    "usps": "KS",
    "geoid": 2036000,
    "ansicode": 485601,
    "name": "Kansas City",
    "lsad": "2",
    "funcstat": 0,
    "aland": 323269000,
    "awater": 9237730,
    "aland_sqmi": 124.815,
    "awater_sqmi": 3.567,
    "intptlat": 39.1225,
    "intptlong": -94.7418,
    "slug": "kansas-city-ks",
    "metroId": 28140,
    "rank": 175,
    "density": 1281
  },
  {
    "pop2023": 159269,
    "pop2022": 156255,
    "pop2020": 150227,
    "pop2010": 120083,
    "growth": 0.01929,
    "usps": "SC",
    "geoid": 4513330,
    "ansicode": 2404030,
    "name": "Charleston",
    "lsad": "2",
    "funcstat": 0,
    "aland": 286335000,
    "awater": 52332200,
    "aland_sqmi": 110.554,
    "awater_sqmi": 20.206,
    "intptlat": 32.8179,
    "intptlong": -79.959,
    "slug": "charleston-sc",
    "metroId": 16700,
    "rank": 176,
    "density": 1441
  },
  {
    "pop2023": 159179,
    "pop2022": 161242,
    "pop2020": 165368,
    "pop2010": 185996,
    "growth": -0.01279,
    "usps": "PR",
    "geoid": 7206593,
    "ansicode": 2415307,
    "name": "Bayamon",
    "lsad": "6",
    "funcstat": 0,
    "aland": 69872000,
    "awater": 327596,
    "aland_sqmi": 26.978,
    "awater_sqmi": 0.126,
    "intptlat": 18.3801,
    "intptlong": -66.1633,
    "slug": "bayamon-pr",
    "metroId": null,
    "rank": 177,
    "density": 5900
  },
  {
    "pop2023": 158564,
    "pop2022": 158088,
    "pop2020": 157136,
    "pop2010": 152374,
    "growth": 0.00301,
    "usps": "CA",
    "geoid": 616350,
    "ansicode": 2410232,
    "name": "Corona",
    "lsad": "2",
    "funcstat": 0,
    "aland": 103563000,
    "awater": 55171,
    "aland_sqmi": 39.986,
    "awater_sqmi": 0.021,
    "intptlat": 33.862,
    "intptlong": -117.565,
    "slug": "corona-ca",
    "metroId": null,
    "rank": 178,
    "density": 3965
  },
  {
    "pop2023": 156790,
    "pop2022": 156503,
    "pop2020": 155929,
    "pop2010": 153060,
    "growth": 0.00183,
    "usps": "MA",
    "geoid": 2567000,
    "ansicode": 619388,
    "name": "Springfield",
    "lsad": "2",
    "funcstat": 0,
    "aland": 82540200,
    "awater": 3137280,
    "aland_sqmi": 31.869,
    "awater_sqmi": 1.211,
    "intptlat": 42.1155,
    "intptlong": -72.54,
    "slug": "springfield-ma",
    "metroId": 44140,
    "rank": 179,
    "density": 4920
  },
  {
    "pop2023": 156757,
    "pop2022": 155527,
    "pop2020": 153067,
    "pop2010": 140768,
    "growth": 0.00791,
    "usps": "FL",
    "geoid": 1232000,
    "ansicode": 2404719,
    "name": "Hollywood",
    "lsad": "2",
    "funcstat": 0,
    "aland": 70626800,
    "awater": 9130070,
    "aland_sqmi": 27.269,
    "awater_sqmi": 3.525,
    "intptlat": 26.031,
    "intptlong": -80.1646,
    "slug": "hollywood-fl",
    "metroId": null,
    "rank": 180,
    "density": 5749
  },
  {
    "pop2023": 156467,
    "pop2022": 153569,
    "pop2020": 147773,
    "pop2010": 118788,
    "growth": 0.01887,
    "usps": "CA",
    "geoid": 662938,
    "ansicode": 2411000,
    "name": "Roseville",
    "lsad": "2",
    "funcstat": 0,
    "aland": 114163000,
    "awater": 0,
    "aland_sqmi": 44.079,
    "awater_sqmi": 0,
    "intptlat": 38.7703,
    "intptlong": -121.32,
    "slug": "roseville-ca",
    "metroId": 40900,
    "rank": 181,
    "density": 3550
  },
  {
    "pop2023": 153192,
    "pop2022": 152164,
    "pop2020": 150108,
    "pop2010": 139824,
    "growth": 0.00676,
    "usps": "TX",
    "geoid": 4847892,
    "ansicode": 2411090,
    "name": "Mesquite",
    "lsad": "2",
    "funcstat": 0,
    "aland": 122382000,
    "awater": 479993,
    "aland_sqmi": 47.252,
    "awater_sqmi": 0.185,
    "intptlat": 32.7629,
    "intptlong": -96.5888,
    "slug": "mesquite-tx",
    "metroId": null,
    "rank": 182,
    "density": 3242
  },
  {
    "pop2023": 153177,
    "pop2022": 152464,
    "pop2020": 151038,
    "pop2010": 143911,
    "growth": 0.00468,
    "usps": "CA",
    "geoid": 622804,
    "ansicode": 2410455,
    "name": "Escondido",
    "lsad": "2",
    "funcstat": 0,
    "aland": 96643700,
    "awater": 276445,
    "aland_sqmi": 37.314,
    "awater_sqmi": 0.107,
    "intptlat": 33.1331,
    "intptlong": -117.074,
    "slug": "escondido-ca",
    "metroId": null,
    "rank": 183,
    "density": 4105
  },
  {
    "pop2023": 152823,
    "pop2022": 152532,
    "pop2020": 151950,
    "pop2010": 149043,
    "growth": 0.00191,
    "usps": "TX",
    "geoid": 4856000,
    "ansicode": 2411380,
    "name": "Pasadena",
    "lsad": "2",
    "funcstat": 0,
    "aland": 112887000,
    "awater": 3550740,
    "aland_sqmi": 43.586,
    "awater_sqmi": 1.371,
    "intptlat": 29.659,
    "intptlong": -95.1504,
    "slug": "pasadena-tx",
    "metroId": null,
    "rank": 184,
    "density": 3506
  },
  {
    "pop2023": 152511,
    "pop2022": 152245,
    "pop2020": 151713,
    "pop2010": 149058,
    "growth": 0.00175,
    "usps": "CA",
    "geoid": 658072,
    "ansicode": 2411454,
    "name": "Pomona",
    "lsad": "2",
    "funcstat": 0,
    "aland": 59523800,
    "awater": 26188,
    "aland_sqmi": 22.982,
    "awater_sqmi": 0.01,
    "intptlat": 34.0585,
    "intptlong": -117.761,
    "slug": "pomona-ca",
    "metroId": null,
    "rank": 185,
    "density": 6636
  },
  {
    "pop2023": 151847,
    "pop2022": 151078,
    "pop2020": 149540,
    "pop2010": 141853,
    "growth": 0.00509,
    "usps": "IL",
    "geoid": 1751622,
    "ansicode": 2395147,
    "name": "Naperville",
    "lsad": "2",
    "funcstat": 0,
    "aland": 100520000,
    "awater": 1507820,
    "aland_sqmi": 38.811,
    "awater_sqmi": 0.582,
    "intptlat": 41.7492,
    "intptlong": -88.162,
    "slug": "naperville-il",
    "metroId": 16980,
    "rank": 186,
    "density": 3912
  },
  {
    "pop2023": 151241,
    "pop2022": 150948,
    "pop2020": 150362,
    "pop2010": 147433,
    "growth": 0.00194,
    "usps": "IL",
    "geoid": 1738570,
    "ansicode": 2395477,
    "name": "Joliet",
    "lsad": "2",
    "funcstat": 0,
    "aland": 166153000,
    "awater": 1758010,
    "aland_sqmi": 64.152,
    "awater_sqmi": 0.679,
    "intptlat": 41.5177,
    "intptlong": -88.1488,
    "slug": "joliet-il",
    "metroId": null,
    "rank": 187,
    "density": 2358
  },
  {
    "pop2023": 151227,
    "pop2022": 150078,
    "pop2020": 147780,
    "pop2010": 136286,
    "growth": 0.00766,
    "usps": "GA",
    "geoid": 1369000,
    "ansicode": 2405429,
    "name": "Savannah",
    "lsad": "2",
    "funcstat": 0,
    "aland": 269126000,
    "awater": 12531200,
    "aland_sqmi": 103.91,
    "awater_sqmi": 4.838,
    "intptlat": 32.0419,
    "intptlong": -81.0513,
    "slug": "savannah-ga",
    "metroId": 42340,
    "rank": 188,
    "density": 1455
  },
  {
    "pop2023": 150837,
    "pop2022": 148274,
    "pop2020": 143148,
    "pop2010": 117517,
    "growth": 0.01729,
    "usps": "AZ",
    "geoid": 471510,
    "ansicode": 2412016,
    "name": "Surprise",
    "lsad": "2",
    "funcstat": 0,
    "aland": 279883000,
    "awater": 553175,
    "aland_sqmi": 108.063,
    "awater_sqmi": 0.214,
    "intptlat": 33.6706,
    "intptlong": -112.453,
    "slug": "surprise-az",
    "metroId": null,
    "rank": 189,
    "density": 1396
  },
  {
    "pop2023": 149980,
    "pop2022": 149538,
    "pop2020": 148654,
    "pop2010": 144229,
    "growth": 0.00296,
    "usps": "CT",
    "geoid": 908000,
    "ansicode": 2378269,
    "name": "Bridgeport",
    "lsad": "2",
    "funcstat": 0,
    "aland": 41606700,
    "awater": 8705770,
    "aland_sqmi": 16.064,
    "awater_sqmi": 3.361,
    "intptlat": 41.1874,
    "intptlong": -73.1958,
    "slug": "bridgeport-ct",
    "metroId": 14860,
    "rank": 190,
    "density": 9336
  },
  {
    "pop2023": 149842,
    "pop2022": 145424,
    "pop2020": 136588,
    "pop2010": 92411,
    "growth": 0.03038,
    "usps": "WA",
    "geoid": 5335415,
    "ansicode": 2410185,
    "name": "Kent",
    "lsad": "2",
    "funcstat": 0,
    "aland": 87411000,
    "awater": 1726260,
    "aland_sqmi": 33.75,
    "awater_sqmi": 0.667,
    "intptlat": 47.388,
    "intptlong": -122.213,
    "slug": "kent-wa",
    "metroId": null,
    "rank": 191,
    "density": 4440
  },
  {
    "pop2023": 149655,
    "pop2022": 149310,
    "pop2020": 148620,
    "pop2010": 145170,
    "growth": 0.00231,
    "usps": "NY",
    "geoid": 3673000,
    "ansicode": 979539,
    "name": "Syracuse",
    "lsad": "2",
    "funcstat": 0,
    "aland": 64826300,
    "awater": 1504330,
    "aland_sqmi": 25.03,
    "awater_sqmi": 0.581,
    "intptlat": 43.041,
    "intptlong": -76.1436,
    "slug": "syracuse-ny",
    "metroId": 45060,
    "rank": 192,
    "density": 5979
  },
  {
    "pop2023": 148797,
    "pop2022": 146487,
    "pop2020": 141867,
    "pop2010": 118772,
    "growth": 0.01577,
    "usps": "CO",
    "geoid": 877290,
    "ansicode": 2412064,
    "name": "Thornton",
    "lsad": "2",
    "funcstat": 0,
    "aland": 92957800,
    "awater": 5328030,
    "aland_sqmi": 35.891,
    "awater_sqmi": 2.057,
    "intptlat": 39.9194,
    "intptlong": -104.943,
    "slug": "thornton-co",
    "metroId": null,
    "rank": 193,
    "density": 4146
  },
  {
    "pop2023": 147816,
    "pop2022": 145167,
    "pop2020": 139869,
    "pop2010": 113383,
    "growth": 0.01825,
    "usps": "TX",
    "geoid": 4819972,
    "ansicode": 2410323,
    "name": "Denton",
    "lsad": "2",
    "funcstat": 0,
    "aland": 249250000,
    "awater": 4145650,
    "aland_sqmi": 96.236,
    "awater_sqmi": 1.601,
    "intptlat": 33.2174,
    "intptlong": -97.1413,
    "slug": "denton-tx",
    "metroId": null,
    "rank": 194,
    "density": 1536
  },
  {
    "pop2023": 147758,
    "pop2022": 149739,
    "pop2020": 153701,
    "pop2010": 173514,
    "growth": -0.01323,
    "usps": "MS",
    "geoid": 2836000,
    "ansicode": 2404779,
    "name": "Jackson",
    "lsad": "2",
    "funcstat": 0,
    "aland": 287712000,
    "awater": 5558330,
    "aland_sqmi": 111.086,
    "awater_sqmi": 2.146,
    "intptlat": 32.3158,
    "intptlong": -90.2128,
    "slug": "jackson-ms",
    "metroId": 27140,
    "rank": 195,
    "density": 1330
  },
  {
    "pop2023": 147556,
    "pop2022": 147393,
    "pop2020": 147067,
    "pop2010": 145438,
    "growth": 0.00111,
    "usps": "CA",
    "geoid": 680000,
    "ansicode": 2412087,
    "name": "Torrance",
    "lsad": "2",
    "funcstat": 0,
    "aland": 53150300,
    "awater": 80323,
    "aland_sqmi": 20.521,
    "awater_sqmi": 0.031,
    "intptlat": 33.835,
    "intptlong": -118.341,
    "slug": "torrance-ca",
    "metroId": null,
    "rank": 196,
    "density": 7190
  },
  {
    "pop2023": 147389,
    "pop2022": 147811,
    "pop2020": 148655,
    "pop2010": 152871,
    "growth": -0.00285,
    "usps": "IL",
    "geoid": 1765000,
    "ansicode": 2396405,
    "name": "Rockford",
    "lsad": "2",
    "funcstat": 0,
    "aland": 166740000,
    "awater": 2628720,
    "aland_sqmi": 64.379,
    "awater_sqmi": 1.015,
    "intptlat": 42.2593,
    "intptlong": -89.0635,
    "slug": "rockford-il",
    "metroId": 40420,
    "rank": 197,
    "density": 2289
  },
  {
    "pop2023": 146466,
    "pop2022": 144772,
    "pop2020": 141384,
    "pop2010": 124442,
    "growth": 0.0117,
    "usps": "CA",
    "geoid": 682954,
    "ansicode": 2412160,
    "name": "Visalia",
    "lsad": "2",
    "funcstat": 0,
    "aland": 98224000,
    "awater": 51434,
    "aland_sqmi": 37.924,
    "awater_sqmi": 0.02,
    "intptlat": 36.328,
    "intptlong": -119.329,
    "slug": "visalia-ca",
    "metroId": 47300,
    "rank": 198,
    "density": 3862
  },
  {
    "pop2023": 146155,
    "pop2022": 145309,
    "pop2020": 143617,
    "pop2010": 135161,
    "growth": 0.00582,
    "usps": "CA",
    "geoid": 628000,
    "ansicode": 2410556,
    "name": "Fullerton",
    "lsad": "2",
    "funcstat": 0,
    "aland": 58095900,
    "awater": 32825,
    "aland_sqmi": 22.431,
    "awater_sqmi": 0.013,
    "intptlat": 33.8857,
    "intptlong": -117.928,
    "slug": "fullerton-ca",
    "metroId": null,
    "rank": 199,
    "density": 6516
  },
  {
    "pop2023": 146104,
    "pop2022": 144431,
    "pop2020": 141085,
    "pop2010": 124354,
    "growth": 0.01158,
    "usps": "FL",
    "geoid": 1225175,
    "ansicode": 2403676,
    "name": "Gainesville",
    "lsad": "2",
    "funcstat": 0,
    "aland": 163344000,
    "awater": 3041970,
    "aland_sqmi": 63.068,
    "awater_sqmi": 1.175,
    "intptlat": 29.6807,
    "intptlong": -82.3492,
    "slug": "gainesville-fl",
    "metroId": 23540,
    "rank": 200,
    "density": 2317
  }
]